[
  {
    "stateName": "ASSAM",
    "circleName": "Assam Circle",
    "regionName": "Dibrugarh Region",
    "divisionName": "Nagaon Division",
    "officeName": "Chakihola B.O",
    "pinCode": "782490",
    "officeType": "BO",
    "district": "KARBI ANGLONG",
    "latitude": "26.1777",
    "longitude": "93.6625"
  },
  {
    "stateName": "ASSAM",
    "circleName": "Assam Circle",
    "regionName": "Dibrugarh Region",
    "divisionName": "Nagaon Division",
    "officeName": "Gautambasti B.O",
    "pinCode": "782480",
    "officeType": "BO",
    "district": "KARBI ANGLONG",
    "latitude": "26.0242778",
    "longitude": "93.7720556"
  },
  {
    "stateName": "ASSAM",
    "circleName": "Assam Circle",
    "regionName": "Dibrugarh Region",
    "divisionName": "Nagaon Division",
    "officeName": "Golaibasti B.O",
    "pinCode": "782480",
    "officeType": "BO",
    "district": "KARBI ANGLONG",
    "latitude": "26.0242778",
    "longitude": "93.7720556"
  },
  {
    "stateName": "ASSAM",
    "circleName": "Assam Circle",
    "regionName": "Dibrugarh Region",
    "divisionName": "Nagaon Division",
    "officeName": "Kailajan B.O",
    "pinCode": "782480",
    "officeType": "BO",
    "district": "KARBI ANGLONG",
    "latitude": "26.0242778",
    "longitude": "93.7720556"
  },
  {
    "stateName": "ASSAM",
    "circleName": "Assam Circle",
    "regionName": "Dibrugarh Region",
    "divisionName": "Nagaon Division",
    "officeName": "Khatkhati B.O",
    "pinCode": "782480",
    "officeType": "BO",
    "district": "KARBI ANGLONG",
    "latitude": "26.0242778",
    "longitude": "93.7720556"
  },
  {
    "stateName": "ASSAM",
    "circleName": "Assam Circle",
    "regionName": "Dibrugarh Region",
    "divisionName": "Nagaon Division",
    "officeName": "Neparpatty B.O",
    "pinCode": "782470",
    "officeType": "BO",
    "district": "KARBI ANGLONG",
    "latitude": "25.3219",
    "longitude": "92.1619"
  },
  {
    "stateName": "ASSAM",
    "circleName": "Assam Circle",
    "regionName": "Dibrugarh Region",
    "divisionName": "Nagaon Division",
    "officeName": "Phanglangso B.O",
    "pinCode": "782462",
    "officeType": "BO",
    "district": "KARBI ANGLONG",
    "latitude": "25.8394444",
    "longitude": "93.4376944"
  },
  {
    "stateName": "ASSAM",
    "circleName": "Assam Circle",
    "regionName": "Dibrugarh Region",
    "divisionName": "Nagaon Division",
    "officeName": "Dentaghat B.O",
    "pinCode": "782441",
    "officeType": "BO",
    "district": "KARBI ANGLONG",
    "latitude": "26.2092",
    "longitude": "93.0527"
  },
  {
    "stateName": "ASSAM",
    "circleName": "Assam Circle",
    "regionName": "Dibrugarh Region",
    "divisionName": "Nagaon Division",
    "officeName": "Langhin Manikpur B.O",
    "pinCode": "782441",
    "officeType": "BO",
    "district": "KARBI ANGLONG",
    "latitude": "26.2092",
    "longitude": "93.0527"
  },
  {
    "stateName": "ASSAM",
    "circleName": "Assam Circle",
    "regionName": "Dibrugarh Region",
    "divisionName": "Nagaon Division",
    "officeName": "Parakhowa Bazar B.O",
    "pinCode": "782441",
    "officeType": "BO",
    "district": "KARBI ANGLONG",
    "latitude": "26.2092",
    "longitude": "93.0527"
  },
  {
    "stateName": "ASSAM",
    "circleName": "Assam Circle",
    "regionName": "Dibrugarh Region",
    "divisionName": "Nagaon Division",
    "officeName": "Jaljuri B.O",
    "pinCode": "782485",
    "officeType": "BO",
    "district": "WEST KARBI ANGLONG",
    "latitude": "25.2532",
    "longitude": "92.4632"
  },
  {
    "stateName": "ASSAM",
    "circleName": "Assam Circle",
    "regionName": "Dibrugarh Region",
    "divisionName": "Nagaon Division",
    "officeName": "Langminso BO",
    "pinCode": "782485",
    "officeType": "BO",
    "district": "WEST KARBI ANGLONG",
    "latitude": "25.90362",
    "longitude": "92.66633"
  },
  {
    "stateName": "ASSAM",
    "circleName": "Assam Circle",
    "regionName": "Dibrugarh Region",
    "divisionName": "Nagaon Division",
    "officeName": "Khanduli B.O",
    "pinCode": "782486",
    "officeType": "BO",
    "district": "WEST KARBI ANGLONG",
    "latitude": "25.6792",
    "longitude": "93.38"
  },
  {
    "stateName": "ASSAM",
    "circleName": "Assam Circle",
    "regionName": "Dibrugarh Region",
    "divisionName": "Nagaon Division",
    "officeName": "Gopalnagar B.O",
    "pinCode": "782435",
    "officeType": "BO",
    "district": "HOJAI",
    "latitude": "26.3486944",
    "longitude": "92.7005"
  },
  {
    "stateName": "ASSAM",
    "circleName": "Assam Circle",
    "regionName": "Dibrugarh Region",
    "divisionName": "Nagaon Division",
    "officeName": "Siliguri B.O",
    "pinCode": "782435",
    "officeType": "BO",
    "district": "HOJAI",
    "latitude": "26.3486944",
    "longitude": "92.7005"
  },
  {
    "stateName": "ASSAM",
    "circleName": "Assam Circle",
    "regionName": "Dibrugarh Region",
    "divisionName": "Nagaon Division",
    "officeName": "Telibasti B.O",
    "pinCode": "782435",
    "officeType": "BO",
    "district": "HOJAI",
    "latitude": "26.3486944",
    "longitude": "92.7005"
  },
  {
    "stateName": "ASSAM",
    "circleName": "Assam Circle",
    "regionName": "Dibrugarh Region",
    "divisionName": "Nagaon Division",
    "officeName": "Okrang B.O",
    "pinCode": "782481",
    "officeType": "BO",
    "district": "KARBI ANGLONG",
    "latitude": "25.8415",
    "longitude": "93.4246"
  },
  {
    "stateName": "ASSAM",
    "circleName": "Assam Circle",
    "regionName": "Dibrugarh Region",
    "divisionName": "Nagaon Division",
    "officeName": "Palakamati B.O",
    "pinCode": "782481",
    "officeType": "BO",
    "district": "KARBI ANGLONG",
    "latitude": "25.8415",
    "longitude": "93.4246"
  },
  {
    "stateName": "ASSAM",
    "circleName": "Assam Circle",
    "regionName": "Dibrugarh Region",
    "divisionName": "Nagaon Division",
    "officeName": "Panditghat B.O",
    "pinCode": "782481",
    "officeType": "BO",
    "district": "KARBI ANGLONG",
    "latitude": "25.8415",
    "longitude": "93.4246"
  },
  {
    "stateName": "ASSAM",
    "circleName": "Assam Circle",
    "regionName": "Dibrugarh Region",
    "divisionName": "Nagaon Division",
    "officeName": "Rajapathar B.O",
    "pinCode": "782481",
    "officeType": "BO",
    "district": "KARBI ANGLONG",
    "latitude": "25.8415",
    "longitude": "93.4246"
  },
  {
    "stateName": "ASSAM",
    "circleName": "Assam Circle",
    "regionName": "Dibrugarh Region",
    "divisionName": "Nagaon Division",
    "officeName": "Barapatia B.O",
    "pinCode": "782428",
    "officeType": "BO",
    "district": "HOJAI",
    "latitude": "26.1069",
    "longitude": "92.7456"
  },
  {
    "stateName": "ASSAM",
    "circleName": "Assam Circle",
    "regionName": "Dibrugarh Region",
    "divisionName": "Nagaon Division",
    "officeName": "Sibpur B.O",
    "pinCode": "782429",
    "officeType": "BO",
    "district": "HOJAI",
    "latitude": "26.3503",
    "longitude": "92.6922"
  },
  {
    "stateName": "ASSAM",
    "circleName": "Assam Circle",
    "regionName": "Dibrugarh Region",
    "divisionName": "Nagaon Division",
    "officeName": "Diyungbra B.O",
    "pinCode": "782448",
    "officeType": "BO",
    "district": "CACHAR",
    "latitude": "25.8524",
    "longitude": "92.8568"
  },
  {
    "stateName": "ASSAM",
    "circleName": "Assam Circle",
    "regionName": "Dibrugarh Region",
    "divisionName": "Nagaon Division",
    "officeName": "Jirikinding B.O",
    "pinCode": "782448",
    "officeType": "BO",
    "district": "WEST KARBI ANGLONG",
    "latitude": "25.8524",
    "longitude": "92.8568"
  },
  {
    "stateName": "ASSAM",
    "circleName": "Assam Circle",
    "regionName": "Dibrugarh Region",
    "divisionName": "Nagaon Division",
    "officeName": "Fultoli Bazar B.O",
    "pinCode": "782446",
    "officeType": "BO",
    "district": "HOJAI",
    "latitude": "26.3486944",
    "longitude": "92.7005"
  },
  {
    "stateName": "ASSAM",
    "circleName": "Assam Circle",
    "regionName": "Dibrugarh Region",
    "divisionName": "Nagaon Division",
    "officeName": "Lachit Pathar B.O",
    "pinCode": "782446",
    "officeType": "BO",
    "district": "HOJAI",
    "latitude": "26.3486944",
    "longitude": "92.7005"
  },
  {
    "stateName": "ASSAM",
    "circleName": "Assam Circle",
    "regionName": "Dibrugarh Region",
    "divisionName": "Nagaon Division",
    "officeName": "Lankeswarigrant B.O",
    "pinCode": "782446",
    "officeType": "BO",
    "district": "HOJAI",
    "latitude": "26.3486944",
    "longitude": "92.7005"
  },
  {
    "stateName": "ASSAM",
    "circleName": "Assam Circle",
    "regionName": "Dibrugarh Region",
    "divisionName": "Nagaon Division",
    "officeName": "Tiniali Bazar B.O",
    "pinCode": "782446",
    "officeType": "BO",
    "district": "HOJAI",
    "latitude": "26.3486944",
    "longitude": "92.7005"
  },
  {
    "stateName": "ASSAM",
    "circleName": "Assam Circle",
    "regionName": "Dibrugarh Region",
    "divisionName": "Nagaon Division",
    "officeName": "Barlongpher B.O",
    "pinCode": "782447",
    "officeType": "BO",
    "district": "KARBI ANGLONG",
    "latitude": "26.3486944",
    "longitude": "92.7005"
  },
  {
    "stateName": "ASSAM",
    "circleName": "Assam Circle",
    "regionName": "Dibrugarh Region",
    "divisionName": "Nagaon Division",
    "officeName": "Mahendijua B.O",
    "pinCode": "782461",
    "officeType": "BO",
    "district": "KARBI ANGLONG",
    "latitude": "25.8394444",
    "longitude": "93.4376944"
  },
  {
    "stateName": "ASSAM",
    "circleName": "Assam Circle",
    "regionName": "Dibrugarh Region",
    "divisionName": "Nagaon Division",
    "officeName": "Barhawar B.O",
    "pinCode": "782439",
    "officeType": "BO",
    "district": "HOJAI",
    "latitude": "26.3503",
    "longitude": "92.6922"
  },
  {
    "stateName": "ASSAM",
    "circleName": "Assam Circle",
    "regionName": "Dibrugarh Region",
    "divisionName": "Nagaon Division",
    "officeName": "Charing B.O",
    "pinCode": "782439",
    "officeType": "BO",
    "district": "HOJAI",
    "latitude": "26.3503",
    "longitude": "92.6922"
  },
  {
    "stateName": "ASSAM",
    "circleName": "Assam Circle",
    "regionName": "Dibrugarh Region",
    "divisionName": "Nagaon Division",
    "officeName": "Samarail B.O",
    "pinCode": "782439",
    "officeType": "BO",
    "district": "HOJAI",
    "latitude": "26.3503",
    "longitude": "92.6922"
  },
  {
    "stateName": "ASSAM",
    "circleName": "Assam Circle",
    "regionName": "Dibrugarh Region",
    "divisionName": "Nagaon Division",
    "officeName": "Bagamukh B.O",
    "pinCode": "782120",
    "officeType": "BO",
    "district": "NAGAON",
    "latitude": "26.3503",
    "longitude": "92.6922"
  },
  {
    "stateName": "ASSAM",
    "circleName": "Assam Circle",
    "regionName": "Dibrugarh Region",
    "divisionName": "Nagaon Division",
    "officeName": "Hatlaokhowa B.O",
    "pinCode": "782120",
    "officeType": "BO",
    "district": "NAGAON",
    "latitude": "26.3503",
    "longitude": "92.6922"
  },
  {
    "stateName": "ASSAM",
    "circleName": "Assam Circle",
    "regionName": "Dibrugarh Region",
    "divisionName": "Nagaon Division",
    "officeName": "Kathpara Bazar B.O",
    "pinCode": "782120",
    "officeType": "BO",
    "district": "NAGAON",
    "latitude": "26.3503",
    "longitude": "92.6922"
  },
  {
    "stateName": "ASSAM",
    "circleName": "Assam Circle",
    "regionName": "Dibrugarh Region",
    "divisionName": "Nagaon Division",
    "officeName": "Lailuri B.O",
    "pinCode": "782120",
    "officeType": "BO",
    "district": "NAGAON",
    "latitude": "26.3503",
    "longitude": "92.6922"
  },
  {
    "stateName": "ASSAM",
    "circleName": "Assam Circle",
    "regionName": "Dibrugarh Region",
    "divisionName": "Nagaon Division",
    "officeName": "Bamuni B.O",
    "pinCode": "782102",
    "officeType": "BO",
    "district": "NAGAON",
    "latitude": "26.3503",
    "longitude": "92.6912"
  },
  {
    "stateName": "ASSAM",
    "circleName": "Assam Circle",
    "regionName": "Dibrugarh Region",
    "divisionName": "Nagaon Division",
    "officeName": "Nibukali B.O",
    "pinCode": "782102",
    "officeType": "BO",
    "district": "NAGAON",
    "latitude": "26.3503",
    "longitude": "92.6912"
  },
  {
    "stateName": "ASSAM",
    "circleName": "Assam Circle",
    "regionName": "Dibrugarh Region",
    "divisionName": "Nagaon Division",
    "officeName": "Gakhajua B.O",
    "pinCode": "782142",
    "officeType": "BO",
    "district": "NAGAON",
    "latitude": "26.3029166",
    "longitude": "92.6258888"
  },
  {
    "stateName": "ASSAM",
    "circleName": "Assam Circle",
    "regionName": "Dibrugarh Region",
    "divisionName": "Nagaon Division",
    "officeName": "Hatichung B.O",
    "pinCode": "782142",
    "officeType": "BO",
    "district": "NAGAON",
    "latitude": "26.3029166",
    "longitude": "92.6258888"
  },
  {
    "stateName": "ASSAM",
    "circleName": "Assam Circle",
    "regionName": "Dibrugarh Region",
    "divisionName": "Nagaon Division",
    "officeName": "Alikuchi B.O",
    "pinCode": "782106",
    "officeType": "BO",
    "district": "NAGAON",
    "latitude": "26.2521",
    "longitude": "92.3423"
  },
  {
    "stateName": "ASSAM",
    "circleName": "Assam Circle",
    "regionName": "Dibrugarh Region",
    "divisionName": "Nagaon Division",
    "officeName": "Mikirbheta B.O",
    "pinCode": "782106",
    "officeType": "BO",
    "district": "MARIGAON",
    "latitude": "26.2521",
    "longitude": "92.3423"
  },
  {
    "stateName": "ASSAM",
    "circleName": "Assam Circle",
    "regionName": "Dibrugarh Region",
    "divisionName": "Nagaon Division",
    "officeName": "Hindu Block B.O",
    "pinCode": "782440",
    "officeType": "BO",
    "district": "HOJAI",
    "latitude": "26.1166",
    "longitude": "92.8666"
  },
  {
    "stateName": "ASSAM",
    "circleName": "Assam Circle",
    "regionName": "Dibrugarh Region",
    "divisionName": "Nagaon Division",
    "officeName": "Ahatguri B.O",
    "pinCode": "782412",
    "officeType": "BO",
    "district": "MARIGAON",
    "latitude": "26.1903",
    "longitude": "92.3739"
  },
  {
    "stateName": "ASSAM",
    "circleName": "Assam Circle",
    "regionName": "Dibrugarh Region",
    "divisionName": "Nagaon Division",
    "officeName": "Silchung B.O",
    "pinCode": "782412",
    "officeType": "BO",
    "district": "MARIGAON",
    "latitude": "26.1903",
    "longitude": "92.3739"
  },
  {
    "stateName": "ASSAM",
    "circleName": "Assam Circle",
    "regionName": "Dibrugarh Region",
    "divisionName": "Nagaon Division",
    "officeName": "Dhing Bazar B.O",
    "pinCode": "782123",
    "officeType": "BO",
    "district": "NAGAON",
    "latitude": "26.4665277",
    "longitude": "92.4740277"
  },
  {
    "stateName": "ASSAM",
    "circleName": "Assam Circle",
    "regionName": "Dibrugarh Region",
    "divisionName": "Nagaon Division",
    "officeName": "Rowmari Bill B.O",
    "pinCode": "782123",
    "officeType": "BO",
    "district": "NAGAON",
    "latitude": "26.4665277",
    "longitude": "92.4740277"
  },
  {
    "stateName": "ASSAM",
    "circleName": "Assam Circle",
    "regionName": "Dibrugarh Region",
    "divisionName": "Nagaon Division",
    "officeName": "Silpukhuri B.O",
    "pinCode": "782123",
    "officeType": "BO",
    "district": "NAGAON",
    "latitude": "26.4665277",
    "longitude": "92.4740277"
  },
  {
    "stateName": "ASSAM",
    "circleName": "Assam Circle",
    "regionName": "Dibrugarh Region",
    "divisionName": "Nagaon Division",
    "officeName": "Bihlangani B.O",
    "pinCode": "782002",
    "officeType": "BO",
    "district": "NAGAON",
    "latitude": "26.35175",
    "longitude": "92.6782777"
  },
  {
    "stateName": "ASSAM",
    "circleName": "Assam Circle",
    "regionName": "Dibrugarh Region",
    "divisionName": "Nagaon Division",
    "officeName": "Huzrangagarah B.O",
    "pinCode": "782002",
    "officeType": "BO",
    "district": "NAGAON",
    "latitude": "26.35175",
    "longitude": "92.6782777"
  },
  {
    "stateName": "ASSAM",
    "circleName": "Assam Circle",
    "regionName": "Dibrugarh Region",
    "divisionName": "Nagaon Division",
    "officeName": "Senchowa B.O",
    "pinCode": "782002",
    "officeType": "BO",
    "district": "NAGAON",
    "latitude": "26.35175",
    "longitude": "92.6782777"
  },
  {
    "stateName": "ASSAM",
    "circleName": "Assam Circle",
    "regionName": "Dibrugarh Region",
    "divisionName": "Nagaon Division",
    "officeName": "Amolapatty B.O",
    "pinCode": "782003",
    "officeType": "BO",
    "district": "NAGAON",
    "latitude": "26.3503",
    "longitude": "92.6922"
  },
  {
    "stateName": "ASSAM",
    "circleName": "Assam Circle",
    "regionName": "Dibrugarh Region",
    "divisionName": "Nagaon Division",
    "officeName": "Dakarghat B.O",
    "pinCode": "782003",
    "officeType": "BO",
    "district": "NAGAON",
    "latitude": "26.3503",
    "longitude": "92.6922"
  },
  {
    "stateName": "ASSAM",
    "circleName": "Assam Circle",
    "regionName": "Dibrugarh Region",
    "divisionName": "Nagaon Division",
    "officeName": "Mohkhuli B.O",
    "pinCode": "782003",
    "officeType": "BO",
    "district": "NAGAON",
    "latitude": "26.3503",
    "longitude": "92.6922"
  },
  {
    "stateName": "ASSAM",
    "circleName": "Assam Circle",
    "regionName": "Dibrugarh Region",
    "divisionName": "Nagaon Division",
    "officeName": "Burgaon B.O",
    "pinCode": "782411",
    "officeType": "BO",
    "district": "MARIGAON",
    "latitude": "26.3503",
    "longitude": "92.6922"
  },
  {
    "stateName": "ASSAM",
    "circleName": "Assam Circle",
    "regionName": "Dibrugarh Region",
    "divisionName": "Nagaon Division",
    "officeName": "Hatiamukh B.O",
    "pinCode": "782411",
    "officeType": "BO",
    "district": "MARIGAON",
    "latitude": "26.3503",
    "longitude": "92.6922"
  },
  {
    "stateName": "ASSAM",
    "circleName": "Assam Circle",
    "regionName": "Dibrugarh Region",
    "divisionName": "Nagaon Division",
    "officeName": "Jagi B.O",
    "pinCode": "782411",
    "officeType": "BO",
    "district": "MARIGAON",
    "latitude": "26.3503",
    "longitude": "92.6922"
  },
  {
    "stateName": "ASSAM",
    "circleName": "Assam Circle",
    "regionName": "Dibrugarh Region",
    "divisionName": "Nagaon Division",
    "officeName": "Kuranibori B.O",
    "pinCode": "782411",
    "officeType": "BO",
    "district": "MARIGAON",
    "latitude": "26.3503",
    "longitude": "92.6922"
  },
  {
    "stateName": "ASSAM",
    "circleName": "Assam Circle",
    "regionName": "Dibrugarh Region",
    "divisionName": "Nagaon Division",
    "officeName": "Manaha Kacharigaon B.O",
    "pinCode": "782411",
    "officeType": "BO",
    "district": "MARIGAON",
    "latitude": "26.3503",
    "longitude": "92.6922"
  },
  {
    "stateName": "ASSAM",
    "circleName": "Assam Circle",
    "regionName": "Dibrugarh Region",
    "divisionName": "Nagaon Division",
    "officeName": "Mayang Kamarpur B.O",
    "pinCode": "782411",
    "officeType": "BO",
    "district": "KAMRUP METRO",
    "latitude": "26.3503",
    "longitude": "92.6922"
  },
  {
    "stateName": "ASSAM",
    "circleName": "Assam Circle",
    "regionName": "Dibrugarh Region",
    "divisionName": "Nagaon Division",
    "officeName": "Dayang Beloguri B.O",
    "pinCode": "782410",
    "officeType": "BO",
    "district": "MARIGAON",
    "latitude": "26.12375",
    "longitude": "92.1985833"
  },
  {
    "stateName": "ASSAM",
    "circleName": "Assam Circle",
    "regionName": "Dibrugarh Region",
    "divisionName": "Nagaon Division",
    "officeName": "Dongarbori B.O",
    "pinCode": "782410",
    "officeType": "BO",
    "district": "MARIGAON",
    "latitude": "26.12375",
    "longitude": "92.1985833"
  },
  {
    "stateName": "ASSAM",
    "circleName": "Assam Circle",
    "regionName": "Dibrugarh Region",
    "divisionName": "Nagaon Division",
    "officeName": "Amguri B.O",
    "pinCode": "782413",
    "officeType": "BO",
    "district": "WEST KARBI ANGLONG",
    "latitude": "26.2679",
    "longitude": "90.9612"
  },
  {
    "stateName": "ASSAM",
    "circleName": "Assam Circle",
    "regionName": "Dibrugarh Region",
    "divisionName": "Nagaon Division",
    "officeName": "Patidaya B.O",
    "pinCode": "782104",
    "officeType": "BO",
    "district": "MARIGAON",
    "latitude": "26.2521",
    "longitude": "92.3423"
  },
  {
    "stateName": "ASSAM",
    "circleName": "Assam Circle",
    "regionName": "Dibrugarh Region",
    "divisionName": "Nagaon Division",
    "officeName": "Mithapukhuripar B.O",
    "pinCode": "782124",
    "officeType": "BO",
    "district": "NAGAON",
    "latitude": "26.4132222",
    "longitude": "92.7427222"
  },
  {
    "stateName": "ASSAM",
    "circleName": "Assam Circle",
    "regionName": "Dibrugarh Region",
    "divisionName": "Nagaon Division",
    "officeName": "Singari Madrassa B.O",
    "pinCode": "782124",
    "officeType": "BO",
    "district": "NAGAON",
    "latitude": "26.4132222",
    "longitude": "92.7427222"
  },
  {
    "stateName": "ASSAM",
    "circleName": "Assam Circle",
    "regionName": "Dibrugarh Region",
    "divisionName": "Nagaon Division",
    "officeName": "Tinsukia Juria B.O",
    "pinCode": "782124",
    "officeType": "BO",
    "district": "NAGAON",
    "latitude": "26.4132222",
    "longitude": "92.7427222"
  },
  {
    "stateName": "ASSAM",
    "circleName": "Assam Circle",
    "regionName": "Dibrugarh Region",
    "divisionName": "Nagaon Division",
    "officeName": "Amlighat B.O",
    "pinCode": "782413",
    "officeType": "BO",
    "district": "MARIGAON",
    "latitude": "26.3503",
    "longitude": "92.6922"
  },
  {
    "stateName": "ASSAM",
    "circleName": "Assam Circle",
    "regionName": "Dibrugarh Region",
    "divisionName": "Nagaon Division",
    "officeName": "Umpanai B.O",
    "pinCode": "782413",
    "officeType": "BO",
    "district": "WEST KARBI ANGLONG",
    "latitude": "26.3503",
    "longitude": "92.6922"
  },
  {
    "stateName": "ASSAM",
    "circleName": "Assam Circle",
    "regionName": "Dibrugarh Region",
    "divisionName": "Nagaon Division",
    "officeName": "Umswai B.O",
    "pinCode": "782413",
    "officeType": "BO",
    "district": "WEST KARBI ANGLONG",
    "latitude": "26.3503",
    "longitude": "92.6922"
  },
  {
    "stateName": "ASSAM",
    "circleName": "Assam Circle",
    "regionName": "Dibrugarh Region",
    "divisionName": "Nagaon Division",
    "officeName": "Umlapher BO",
    "pinCode": "782413",
    "officeType": "BO",
    "district": "MARIGAON",
    "latitude": "25.78385",
    "longitude": "92.20889"
  },
  {
    "stateName": "ASSAM",
    "circleName": "Assam Circle",
    "regionName": "Dibrugarh Region",
    "divisionName": "Nagaon Division",
    "officeName": "Hadau BO",
    "pinCode": "782413",
    "officeType": "BO",
    "district": "MARIGAON",
    "latitude": "25.96874",
    "longitude": "92.28605"
  },
  {
    "stateName": "ASSAM",
    "circleName": "Assam Circle",
    "regionName": "Dibrugarh Region",
    "divisionName": "Nagaon Division",
    "officeName": "Dakhin Sangchaki B.O",
    "pinCode": "782426",
    "officeType": "BO",
    "district": "NAGAON",
    "latitude": "26.1578611",
    "longitude": "92.6592777"
  },
  {
    "stateName": "ASSAM",
    "circleName": "Assam Circle",
    "regionName": "Dibrugarh Region",
    "divisionName": "Nagaon Division",
    "officeName": "Gerjaipam B.O",
    "pinCode": "782426",
    "officeType": "BO",
    "district": "NAGAON",
    "latitude": "26.1578611",
    "longitude": "92.6592777"
  },
  {
    "stateName": "ASSAM",
    "circleName": "Assam Circle",
    "regionName": "Dibrugarh Region",
    "divisionName": "Nagaon Division",
    "officeName": "Niz narikoli B.O",
    "pinCode": "782426",
    "officeType": "BO",
    "district": "NAGAON",
    "latitude": "26.1578611",
    "longitude": "92.6592777"
  },
  {
    "stateName": "ASSAM",
    "circleName": "Assam Circle",
    "regionName": "Dibrugarh Region",
    "divisionName": "Nagaon Division",
    "officeName": "Simaluguri B.O",
    "pinCode": "782426",
    "officeType": "BO",
    "district": "NAGAON",
    "latitude": "26.1578611",
    "longitude": "92.6592777"
  },
  {
    "stateName": "ASSAM",
    "circleName": "Assam Circle",
    "regionName": "Dibrugarh Region",
    "divisionName": "Nagaon Division",
    "officeName": "Tetelisara B.O",
    "pinCode": "782426",
    "officeType": "BO",
    "district": "NAGAON",
    "latitude": "26.1578611",
    "longitude": "92.6592777"
  },
  {
    "stateName": "ASSAM",
    "circleName": "Assam Circle",
    "regionName": "Dibrugarh Region",
    "divisionName": "Nagaon Division",
    "officeName": "Lochanabori B.O",
    "pinCode": "782126",
    "officeType": "BO",
    "district": "MARIGAON",
    "latitude": "26.4535",
    "longitude": "92.4245"
  },
  {
    "stateName": "ASSAM",
    "circleName": "Assam Circle",
    "regionName": "Dibrugarh Region",
    "divisionName": "Nagaon Division",
    "officeName": "Salkati Pathar B.O",
    "pinCode": "782126",
    "officeType": "BO",
    "district": "MARIGAON",
    "latitude": "26.4535",
    "longitude": "92.4245"
  },
  {
    "stateName": "ASSAM",
    "circleName": "Assam Circle",
    "regionName": "Dibrugarh Region",
    "divisionName": "Nagaon Division",
    "officeName": "Ghagua B.O",
    "pinCode": "782105",
    "officeType": "BO",
    "district": "MARIGAON",
    "latitude": "26.252942",
    "longitude": "92.335689"
  },
  {
    "stateName": "ASSAM",
    "circleName": "Assam Circle",
    "regionName": "Dibrugarh Region",
    "divisionName": "Nagaon Division",
    "officeName": "Natuagaon B.O",
    "pinCode": "782105",
    "officeType": "BO",
    "district": "MARIGAON",
    "latitude": "26.252942",
    "longitude": "92.335689"
  },
  {
    "stateName": "ASSAM",
    "circleName": "Assam Circle",
    "regionName": "Dibrugarh Region",
    "divisionName": "Nagaon Division",
    "officeName": "Udari B.O",
    "pinCode": "782105",
    "officeType": "BO",
    "district": "MARIGAON",
    "latitude": "26.252942",
    "longitude": "92.335689"
  },
  {
    "stateName": "ASSAM",
    "circleName": "Assam Circle",
    "regionName": "Dibrugarh Region",
    "divisionName": "Nagaon Division",
    "officeName": "Kalongpar Halowagaon B.O",
    "pinCode": "782141",
    "officeType": "BO",
    "district": "NAGAON",
    "latitude": "26.3735",
    "longitude": "92.794"
  },
  {
    "stateName": "ASSAM",
    "circleName": "Assam Circle",
    "regionName": "Dibrugarh Region",
    "divisionName": "Nagaon Division",
    "officeName": "Teliagaon B.O",
    "pinCode": "782141",
    "officeType": "BO",
    "district": "NAGAON",
    "latitude": "26.3735",
    "longitude": "92.794"
  },
  {
    "stateName": "ASSAM",
    "circleName": "Assam Circle",
    "regionName": "Dibrugarh Region",
    "divisionName": "Nagaon Division",
    "officeName": "Bamunbori B.O",
    "pinCode": "782103",
    "officeType": "BO",
    "district": "MARIGAON",
    "latitude": "26.228",
    "longitude": "92.5201666"
  },
  {
    "stateName": "ASSAM",
    "circleName": "Assam Circle",
    "regionName": "Dibrugarh Region",
    "divisionName": "Nagaon Division",
    "officeName": "Dighaldori B.O",
    "pinCode": "782103",
    "officeType": "BO",
    "district": "NAGAON",
    "latitude": "26.228",
    "longitude": "92.5201666"
  },
  {
    "stateName": "ASSAM",
    "circleName": "Assam Circle",
    "regionName": "Dibrugarh Region",
    "divisionName": "Nagaon Division",
    "officeName": "Dighaliati B.O",
    "pinCode": "782103",
    "officeType": "BO",
    "district": "NAGAON",
    "latitude": "26.228",
    "longitude": "92.5201666"
  },
  {
    "stateName": "ASSAM",
    "circleName": "Assam Circle",
    "regionName": "Dibrugarh Region",
    "divisionName": "Nagaon Division",
    "officeName": "Kanchanpur B.O",
    "pinCode": "782125",
    "officeType": "BO",
    "district": "NAGAON",
    "latitude": "26.4480833",
    "longitude": "92.6596666"
  },
  {
    "stateName": "ASSAM",
    "circleName": "Assam Circle",
    "regionName": "Dibrugarh Region",
    "divisionName": "Nagaon Division",
    "officeName": "Pubsalpara B.O",
    "pinCode": "782125",
    "officeType": "BO",
    "district": "NAGAON",
    "latitude": "26.4480833",
    "longitude": "92.6596666"
  },
  {
    "stateName": "ASSAM",
    "circleName": "Assam Circle",
    "regionName": "Dibrugarh Region",
    "divisionName": "Nagaon Division",
    "officeName": "Saidoria B.O",
    "pinCode": "782125",
    "officeType": "BO",
    "district": "NAGAON",
    "latitude": "26.4480083",
    "longitude": "92.6596666"
  },
  {
    "stateName": "ASSAM",
    "circleName": "Assam Circle",
    "regionName": "Dibrugarh Region",
    "divisionName": "Nagaon Division",
    "officeName": "Teliachapari B.O",
    "pinCode": "782125",
    "officeType": "BO",
    "district": "NAGAON",
    "latitude": "26.4480833",
    "longitude": "92.6596666"
  },
  {
    "stateName": "ASSAM",
    "circleName": "Assam Circle",
    "regionName": "Dibrugarh Region",
    "divisionName": "Nagaon Division",
    "officeName": "Chakitop B.O",
    "pinCode": "782140",
    "officeType": "BO",
    "district": "NAGAON",
    "latitude": "26.4159",
    "longitude": "92.8397"
  },
  {
    "stateName": "ASSAM",
    "circleName": "Assam Circle",
    "regionName": "Dibrugarh Region",
    "divisionName": "Nagaon Division",
    "officeName": "Singia B.O",
    "pinCode": "782140",
    "officeType": "BO",
    "district": "NAGAON",
    "latitude": "26.4159",
    "longitude": "92.8397"
  },
  {
    "stateName": "ASSAM",
    "circleName": "Assam Circle",
    "regionName": "Dibrugarh Region",
    "divisionName": "Nagaon Division",
    "officeName": "Ghehua Chalchali B.O",
    "pinCode": "782128",
    "officeType": "BO",
    "district": "NAGAON",
    "latitude": "26.3486944",
    "longitude": "92.7005"
  },
  {
    "stateName": "ASSAM",
    "circleName": "Assam Circle",
    "regionName": "Dibrugarh Region",
    "divisionName": "Nagaon Division",
    "officeName": "Uttar Garanjan B.O",
    "pinCode": "782128",
    "officeType": "BO",
    "district": "NAGAON",
    "latitude": "26.3486944",
    "longitude": "92.7005"
  },
  {
    "stateName": "ASSAM",
    "circleName": "Assam Circle",
    "regionName": "Dibrugarh Region",
    "divisionName": "Sibsagar Division",
    "officeName": "Goriajan B.O",
    "pinCode": "785611",
    "officeType": "BO",
    "district": "GOLAGHAT",
    "latitude": "26.4008",
    "longitude": "93.4834"
  },
  {
    "stateName": "ASSAM",
    "circleName": "Assam Circle",
    "regionName": "Dibrugarh Region",
    "divisionName": "Sibsagar Division",
    "officeName": "Rongagora Ghat B.O",
    "pinCode": "785611",
    "officeType": "BO",
    "district": "GOLAGHAT",
    "latitude": "26.4008",
    "longitude": "93.4834"
  },
  {
    "stateName": "ASSAM",
    "circleName": "Assam Circle",
    "regionName": "Dibrugarh Region",
    "divisionName": "Sibsagar Division",
    "officeName": "Batiporia B.O",
    "pinCode": "785618",
    "officeType": "BO",
    "district": "GOLAGHAT",
    "latitude": "26.3418",
    "longitude": "94.072"
  },
  {
    "stateName": "ASSAM",
    "circleName": "Assam Circle",
    "regionName": "Dibrugarh Region",
    "divisionName": "Sibsagar Division",
    "officeName": "Dubialgaon B.O",
    "pinCode": "785618",
    "officeType": "BO",
    "district": "GOLAGHAT",
    "latitude": "26.3418",
    "longitude": "94.072"
  },
  {
    "stateName": "ASSAM",
    "circleName": "Assam Circle",
    "regionName": "Dibrugarh Region",
    "divisionName": "Sibsagar Division",
    "officeName": "Haladhibari B.O",
    "pinCode": "785618",
    "officeType": "BO",
    "district": "GOLAGHAT",
    "latitude": "26.3418",
    "longitude": "94.072"
  },
  {
    "stateName": "ASSAM",
    "circleName": "Assam Circle",
    "regionName": "Dibrugarh Region",
    "divisionName": "Sibsagar Division",
    "officeName": "Adharsatra B.O",
    "pinCode": "785702",
    "officeType": "BO",
    "district": "GOLAGHAT",
    "latitude": "26.5001388",
    "longitude": "93.9724444"
  },
  {
    "stateName": "ASSAM",
    "circleName": "Assam Circle",
    "regionName": "Dibrugarh Region",
    "divisionName": "Sibsagar Division",
    "officeName": "Howtoly B.O",
    "pinCode": "785702",
    "officeType": "BO",
    "district": "GOLAGHAT",
    "latitude": "26.5001388",
    "longitude": "93.9724444"
  },
  {
    "stateName": "ASSAM",
    "circleName": "Assam Circle",
    "regionName": "Dibrugarh Region",
    "divisionName": "Sibsagar Division",
    "officeName": "Missionpatty B.O",
    "pinCode": "785702",
    "officeType": "BO",
    "district": "GOLAGHAT",
    "latitude": "26.5001388",
    "longitude": "93.9724444"
  },
  {
    "stateName": "ASSAM",
    "circleName": "Assam Circle",
    "regionName": "Dibrugarh Region",
    "divisionName": "Sibsagar Division",
    "officeName": "Padumani B.O",
    "pinCode": "785702",
    "officeType": "BO",
    "district": "GOLAGHAT",
    "latitude": "26.5001388",
    "longitude": "93.9724444"
  },
  {
    "stateName": "ASSAM",
    "circleName": "Assam Circle",
    "regionName": "Dibrugarh Region",
    "divisionName": "Sibsagar Division",
    "officeName": "Fallangani  BO",
    "pinCode": "785702",
    "officeType": "BO",
    "district": "GOLAGHAT",
    "latitude": "26.452771",
    "longitude": "93.864784"
  },
  {
    "stateName": "ASSAM",
    "circleName": "Assam Circle",
    "regionName": "Dibrugarh Region",
    "divisionName": "Sibsagar Division",
    "officeName": "Lakhowjaan Tiniali B.O",
    "pinCode": "785612",
    "officeType": "BO",
    "district": "GOLAGHAT",
    "latitude": "26.6406666",
    "longitude": "93.6009166"
  },
  {
    "stateName": "ASSAM",
    "circleName": "Assam Circle",
    "regionName": "Dibrugarh Region",
    "divisionName": "Sibsagar Division",
    "officeName": "Naharjaan B.O",
    "pinCode": "785612",
    "officeType": "BO",
    "district": "GOLAGHAT",
    "latitude": "26.6406666",
    "longitude": "93.6009166"
  },
  {
    "stateName": "ASSAM",
    "circleName": "Assam Circle",
    "regionName": "Dibrugarh Region",
    "divisionName": "Sibsagar Division",
    "officeName": "Siljuri B.O",
    "pinCode": "785612",
    "officeType": "BO",
    "district": "GOLAGHAT",
    "latitude": "26.6406666",
    "longitude": "93.6009166"
  },
  {
    "stateName": "ASSAM",
    "circleName": "Assam Circle",
    "regionName": "Dibrugarh Region",
    "divisionName": "Sibsagar Division",
    "officeName": "Ahatguri B.O",
    "pinCode": "785614",
    "officeType": "BO",
    "district": "MAJULI",
    "latitude": "26.70925",
    "longitude": "93.9751111"
  },
  {
    "stateName": "ASSAM",
    "circleName": "Assam Circle",
    "regionName": "Dibrugarh Region",
    "divisionName": "Sibsagar Division",
    "officeName": "Amgurinabhanga B.O",
    "pinCode": "785614",
    "officeType": "BO",
    "district": "GOLAGHAT",
    "latitude": "26.70925",
    "longitude": "93.9751111"
  },
  {
    "stateName": "ASSAM",
    "circleName": "Assam Circle",
    "regionName": "Dibrugarh Region",
    "divisionName": "Sibsagar Division",
    "officeName": "Bahguri B.O",
    "pinCode": "785614",
    "officeType": "BO",
    "district": "GOLAGHAT",
    "latitude": "26.70925",
    "longitude": "93.9751111"
  },
  {
    "stateName": "ASSAM",
    "circleName": "Assam Circle",
    "regionName": "Dibrugarh Region",
    "divisionName": "Sibsagar Division",
    "officeName": "Hahpani B.O",
    "pinCode": "785614",
    "officeType": "BO",
    "district": "GOLAGHAT",
    "latitude": "26.70925",
    "longitude": "93.9751111"
  },
  {
    "stateName": "ASSAM",
    "circleName": "Assam Circle",
    "regionName": "Dibrugarh Region",
    "divisionName": "Sibsagar Division",
    "officeName": "Rowmara B.O",
    "pinCode": "785614",
    "officeType": "BO",
    "district": "MAJULI",
    "latitude": "26.70925",
    "longitude": "93.9751111"
  },
  {
    "stateName": "ASSAM",
    "circleName": "Assam Circle",
    "regionName": "Dibrugarh Region",
    "divisionName": "Sibsagar Division",
    "officeName": "Betioni B.O",
    "pinCode": "785622",
    "officeType": "BO",
    "district": "GOLAGHAT",
    "latitude": "26.3608",
    "longitude": "93.5906"
  },
  {
    "stateName": "ASSAM",
    "circleName": "Assam Circle",
    "regionName": "Dibrugarh Region",
    "divisionName": "Sibsagar Division",
    "officeName": "Kathalguri B.O",
    "pinCode": "785622",
    "officeType": "BO",
    "district": "GOLAGHAT",
    "latitude": "26.3608",
    "longitude": "93.5906"
  },
  {
    "stateName": "ASSAM",
    "circleName": "Assam Circle",
    "regionName": "Dibrugarh Region",
    "divisionName": "Sibsagar Division",
    "officeName": "Moluahabi B.O",
    "pinCode": "785622",
    "officeType": "BO",
    "district": "GOLAGHAT",
    "latitude": "26.3608",
    "longitude": "93.5906"
  },
  {
    "stateName": "ASSAM",
    "circleName": "Assam Circle",
    "regionName": "Dibrugarh Region",
    "divisionName": "Sibsagar Division",
    "officeName": "Athabari B.O",
    "pinCode": "785625",
    "officeType": "BO",
    "district": "GOLAGHAT",
    "latitude": "26.5298",
    "longitude": "94.0531"
  },
  {
    "stateName": "ASSAM",
    "circleName": "Assam Circle",
    "regionName": "Dibrugarh Region",
    "divisionName": "Sibsagar Division",
    "officeName": "Hatikhuli B.O",
    "pinCode": "785609",
    "officeType": "BO",
    "district": "GOLAGHAT",
    "latitude": "26.5355",
    "longitude": "94.3209"
  },
  {
    "stateName": "ASSAM",
    "circleName": "Assam Circle",
    "regionName": "Dibrugarh Region",
    "divisionName": "Sibsagar Division",
    "officeName": "Cinakon Chariali B.O",
    "pinCode": "785615",
    "officeType": "BO",
    "district": "GOLAGHAT",
    "latitude": "26.7172",
    "longitude": "93.7111"
  },
  {
    "stateName": "ASSAM",
    "circleName": "Assam Circle",
    "regionName": "Dibrugarh Region",
    "divisionName": "Sibsagar Division",
    "officeName": "Garumora B.O",
    "pinCode": "785703",
    "officeType": "BO",
    "district": "JORHAT",
    "latitude": "26.51225",
    "longitude": "93.9716944"
  },
  {
    "stateName": "ASSAM",
    "circleName": "Assam Circle",
    "regionName": "Dibrugarh Region",
    "divisionName": "Sibsagar Division",
    "officeName": "Goalgaon Baliati B.O",
    "pinCode": "785703",
    "officeType": "BO",
    "district": "JORHAT",
    "latitude": "26.51225",
    "longitude": "93.9716944"
  },
  {
    "stateName": "ASSAM",
    "circleName": "Assam Circle",
    "regionName": "Dibrugarh Region",
    "divisionName": "Sibsagar Division",
    "officeName": "Sitalpather B.O",
    "pinCode": "785703",
    "officeType": "BO",
    "district": "GOLAGHAT",
    "latitude": "26.51225",
    "longitude": "93.9716944"
  },
  {
    "stateName": "ASSAM",
    "circleName": "Assam Circle",
    "regionName": "Dibrugarh Region",
    "divisionName": "Sibsagar Division",
    "officeName": "Negheriting B.O",
    "pinCode": "785703",
    "officeType": "BO",
    "district": "GOLAGHAT",
    "latitude": "26.51225",
    "longitude": "93.9716944"
  },
  {
    "stateName": "ASSAM",
    "circleName": "Assam Circle",
    "regionName": "Dibrugarh Region",
    "divisionName": "Sibsagar Division",
    "officeName": "Chungajan B.O",
    "pinCode": "785601",
    "officeType": "BO",
    "district": "GOLAGHAT",
    "latitude": "26.1978333",
    "longitude": "93.8606944"
  },
  {
    "stateName": "ASSAM",
    "circleName": "Assam Circle",
    "regionName": "Dibrugarh Region",
    "divisionName": "Sibsagar Division",
    "officeName": "Tengabari B.O",
    "pinCode": "785601",
    "officeType": "BO",
    "district": "GOLAGHAT",
    "latitude": "26.1978333",
    "longitude": "93.8606944"
  },
  {
    "stateName": "ASSAM",
    "circleName": "Assam Circle",
    "regionName": "Dibrugarh Region",
    "divisionName": "Sibsagar Division",
    "officeName": "Bahana Tiniali B.O",
    "pinCode": "785101",
    "officeType": "BO",
    "district": "JORHAT",
    "latitude": "26.483",
    "longitude": "94.1426"
  },
  {
    "stateName": "ASSAM",
    "circleName": "Assam Circle",
    "regionName": "Dibrugarh Region",
    "divisionName": "Sibsagar Division",
    "officeName": "Paanjaan Borholla B.O",
    "pinCode": "785631",
    "officeType": "BO",
    "district": "JORHAT",
    "latitude": "26.2652",
    "longitude": "94.0758"
  },
  {
    "stateName": "ASSAM",
    "circleName": "Assam Circle",
    "regionName": "Dibrugarh Region",
    "divisionName": "Sibsagar Division",
    "officeName": "Pulikaitoni B.O",
    "pinCode": "785631",
    "officeType": "BO",
    "district": "JORHAT",
    "latitude": "26.2652",
    "longitude": "94.0758"
  },
  {
    "stateName": "ASSAM",
    "circleName": "Assam Circle",
    "regionName": "Dibrugarh Region",
    "divisionName": "Sibsagar Division",
    "officeName": "Kalakhowa B.O",
    "pinCode": "785010",
    "officeType": "BO",
    "district": "JORHAT",
    "latitude": "26.48421",
    "longitude": "94.1037"
  },
  {
    "stateName": "ASSAM",
    "circleName": "Assam Circle",
    "regionName": "Dibrugarh Region",
    "divisionName": "Sibsagar Division",
    "officeName": "Lichubari B.O",
    "pinCode": "785008",
    "officeType": "BO",
    "district": "JORHAT",
    "latitude": "26.7249444",
    "longitude": "94.22925"
  },
  {
    "stateName": "ASSAM",
    "circleName": "Assam Circle",
    "regionName": "Dibrugarh Region",
    "divisionName": "Sibsagar Division",
    "officeName": "Konwaripukhuri B.O",
    "pinCode": "785008",
    "officeType": "BO",
    "district": "JORHAT",
    "latitude": "26.7249444",
    "longitude": "94.22925"
  },
  {
    "stateName": "ASSAM",
    "circleName": "Assam Circle",
    "regionName": "Dibrugarh Region",
    "divisionName": "Sibsagar Division",
    "officeName": "Balichapori B.O",
    "pinCode": "785104",
    "officeType": "BO",
    "district": "MAJULI",
    "latitude": "26.9836944",
    "longitude": "94.1563055"
  },
  {
    "stateName": "ASSAM",
    "circleName": "Assam Circle",
    "regionName": "Dibrugarh Region",
    "divisionName": "Sibsagar Division",
    "officeName": "Bargayan B.O",
    "pinCode": "785104",
    "officeType": "BO",
    "district": "MAJULI",
    "latitude": "26.9836944",
    "longitude": "94.1563055"
  },
  {
    "stateName": "ASSAM",
    "circleName": "Assam Circle",
    "regionName": "Dibrugarh Region",
    "divisionName": "Sibsagar Division",
    "officeName": "Bhuramora B.O",
    "pinCode": "785104",
    "officeType": "BO",
    "district": "MAJULI",
    "latitude": "26.9836944",
    "longitude": "94.1563055"
  },
  {
    "stateName": "ASSAM",
    "circleName": "Assam Circle",
    "regionName": "Dibrugarh Region",
    "divisionName": "Sibsagar Division",
    "officeName": "Hazarikagaon B.O",
    "pinCode": "785104",
    "officeType": "BO",
    "district": "MAJULI",
    "latitude": "26.9836944",
    "longitude": "94.1563055"
  },
  {
    "stateName": "ASSAM",
    "circleName": "Assam Circle",
    "regionName": "Dibrugarh Region",
    "divisionName": "Sibsagar Division",
    "officeName": "Jokaibowa B.O",
    "pinCode": "785104",
    "officeType": "BO",
    "district": "MAJULI",
    "latitude": "26.9836944",
    "longitude": "94.1563055"
  },
  {
    "stateName": "ASSAM",
    "circleName": "Assam Circle",
    "regionName": "Dibrugarh Region",
    "divisionName": "Sibsagar Division",
    "officeName": "Kulamua Missing B.O",
    "pinCode": "785104",
    "officeType": "BO",
    "district": "MAJULI",
    "latitude": "26.9836944",
    "longitude": "94.1563055"
  },
  {
    "stateName": "ASSAM",
    "circleName": "Assam Circle",
    "regionName": "Dibrugarh Region",
    "divisionName": "Sibsagar Division",
    "officeName": "Charaibahi B.O",
    "pinCode": "785616",
    "officeType": "BO",
    "district": "JORHAT",
    "latitude": "24.1518",
    "longitude": "92.1817"
  },
  {
    "stateName": "ASSAM",
    "circleName": "Assam Circle",
    "regionName": "Dibrugarh Region",
    "divisionName": "Sibsagar Division",
    "officeName": "Chungi B.O",
    "pinCode": "785616",
    "officeType": "BO",
    "district": "JORHAT",
    "latitude": "24.1518",
    "longitude": "92.1817"
  },
  {
    "stateName": "ASSAM",
    "circleName": "Assam Circle",
    "regionName": "Dibrugarh Region",
    "divisionName": "Sibsagar Division",
    "officeName": "Tamulbari B.O",
    "pinCode": "785616",
    "officeType": "BO",
    "district": "JORHAT",
    "latitude": "24.1518",
    "longitude": "92.1817"
  },
  {
    "stateName": "ASSAM",
    "circleName": "Assam Circle",
    "regionName": "Dibrugarh Region",
    "divisionName": "Sibsagar Division",
    "officeName": "Borpomua Lakhimi B.O",
    "pinCode": "785105",
    "officeType": "BO",
    "district": "MAJULI",
    "latitude": "26.756",
    "longitude": "94.2094"
  },
  {
    "stateName": "ASSAM",
    "circleName": "Assam Circle",
    "regionName": "Dibrugarh Region",
    "divisionName": "Sibsagar Division",
    "officeName": "Chamahiati B.O",
    "pinCode": "785105",
    "officeType": "BO",
    "district": "MAJULI",
    "latitude": "26.756",
    "longitude": "94.2094"
  },
  {
    "stateName": "ASSAM",
    "circleName": "Assam Circle",
    "regionName": "Dibrugarh Region",
    "divisionName": "Sibsagar Division",
    "officeName": "Panichokua B.O",
    "pinCode": "785006",
    "officeType": "BO",
    "district": "JORHAT",
    "latitude": "26.7397222",
    "longitude": "94.1581944"
  },
  {
    "stateName": "ASSAM",
    "circleName": "Assam Circle",
    "regionName": "Dibrugarh Region",
    "divisionName": "Sibsagar Division",
    "officeName": "Parbatia B.O",
    "pinCode": "785006",
    "officeType": "BO",
    "district": "JORHAT",
    "latitude": "26.7397222",
    "longitude": "94.1581944"
  },
  {
    "stateName": "ASSAM",
    "circleName": "Assam Circle",
    "regionName": "Dibrugarh Region",
    "divisionName": "Sibsagar Division",
    "officeName": "Tilikiaam B.O",
    "pinCode": "785006",
    "officeType": "BO",
    "district": "JORHAT",
    "latitude": "26.7397222",
    "longitude": "94.1581944"
  },
  {
    "stateName": "ASSAM",
    "circleName": "Assam Circle",
    "regionName": "Dibrugarh Region",
    "divisionName": "Sibsagar Division",
    "officeName": "Dewangaon B.O",
    "pinCode": "785107",
    "officeType": "BO",
    "district": "JORHAT",
    "latitude": "26.4822",
    "longitude": "94.2141"
  },
  {
    "stateName": "ASSAM",
    "circleName": "Assam Circle",
    "regionName": "Dibrugarh Region",
    "divisionName": "Sibsagar Division",
    "officeName": "Kamarkhatowal B.O",
    "pinCode": "785107",
    "officeType": "BO",
    "district": "JORHAT",
    "latitude": "26.4822",
    "longitude": "94.2141"
  },
  {
    "stateName": "ASSAM",
    "circleName": "Assam Circle",
    "regionName": "Dibrugarh Region",
    "divisionName": "Sibsagar Division",
    "officeName": "Bahoni B.O",
    "pinCode": "785633",
    "officeType": "BO",
    "district": "JORHAT",
    "latitude": "24.1911",
    "longitude": "92.1413"
  },
  {
    "stateName": "ASSAM",
    "circleName": "Assam Circle",
    "regionName": "Dibrugarh Region",
    "divisionName": "Sibsagar Division",
    "officeName": "Sycotta B.O",
    "pinCode": "785633",
    "officeType": "BO",
    "district": "JORHAT",
    "latitude": "24.1911",
    "longitude": "92.1413"
  },
  {
    "stateName": "ASSAM",
    "circleName": "Assam Circle",
    "regionName": "Dibrugarh Region",
    "divisionName": "Sibsagar Division",
    "officeName": "Desoinagar B.O",
    "pinCode": "785015",
    "officeType": "BO",
    "district": "JORHAT",
    "latitude": "26.461",
    "longitude": "94.123"
  },
  {
    "stateName": "ASSAM",
    "circleName": "Assam Circle",
    "regionName": "Dibrugarh Region",
    "divisionName": "Sibsagar Division",
    "officeName": "Dhekiakhowa B.O",
    "pinCode": "785700",
    "officeType": "BO",
    "district": "JORHAT",
    "latitude": "26.4744",
    "longitude": "94.1914"
  },
  {
    "stateName": "ASSAM",
    "circleName": "Assam Circle",
    "regionName": "Dibrugarh Region",
    "divisionName": "Sibsagar Division",
    "officeName": "Gezera B.O",
    "pinCode": "785110",
    "officeType": "BO",
    "district": "MAJULI",
    "latitude": "26.756",
    "longitude": "94.2094"
  },
  {
    "stateName": "ASSAM",
    "circleName": "Assam Circle",
    "regionName": "Dibrugarh Region",
    "divisionName": "Sibsagar Division",
    "officeName": "Doklongia B.O",
    "pinCode": "785634",
    "officeType": "BO",
    "district": "JORHAT",
    "latitude": "26.7580278",
    "longitude": "94.2100556"
  },
  {
    "stateName": "ASSAM",
    "circleName": "Assam Circle",
    "regionName": "Dibrugarh Region",
    "divisionName": "Sibsagar Division",
    "officeName": "Bajalani Kohar B.O",
    "pinCode": "785009",
    "officeType": "BO",
    "district": "JORHAT",
    "latitude": "26.4242",
    "longitude": "94.1212"
  },
  {
    "stateName": "ASSAM",
    "circleName": "Assam Circle",
    "regionName": "Dibrugarh Region",
    "divisionName": "Sibsagar Division",
    "officeName": "Gohainbari B.O",
    "pinCode": "785635",
    "officeType": "BO",
    "district": "JORHAT",
    "latitude": "26.7080277",
    "longitude": "94.3964722"
  },
  {
    "stateName": "ASSAM",
    "circleName": "Assam Circle",
    "regionName": "Dibrugarh Region",
    "divisionName": "Sibsagar Division",
    "officeName": "Lahinggaon B.O",
    "pinCode": "785635",
    "officeType": "BO",
    "district": "JORHAT",
    "latitude": "26.7080277",
    "longitude": "94.3964722"
  },
  {
    "stateName": "ASSAM",
    "circleName": "Assam Circle",
    "regionName": "Dibrugarh Region",
    "divisionName": "Sibsagar Division",
    "officeName": "Chakial B.O",
    "pinCode": "785632",
    "officeType": "BO",
    "district": "JORHAT",
    "latitude": "26.353",
    "longitude": "94.114"
  },
  {
    "stateName": "ASSAM",
    "circleName": "Assam Circle",
    "regionName": "Dibrugarh Region",
    "divisionName": "Sibsagar Division",
    "officeName": "Bongalpukhuri B.O",
    "pinCode": "785014",
    "officeType": "BO",
    "district": "JORHAT",
    "latitude": "26.6361",
    "longitude": "93.6711"
  },
  {
    "stateName": "ASSAM",
    "circleName": "Assam Circle",
    "regionName": "Dibrugarh Region",
    "divisionName": "Sibsagar Division",
    "officeName": "Gabharu Konwargaon B.O",
    "pinCode": "785636",
    "officeType": "BO",
    "district": "JORHAT",
    "latitude": "26.7317",
    "longitude": "94.4677"
  },
  {
    "stateName": "ASSAM",
    "circleName": "Assam Circle",
    "regionName": "Dibrugarh Region",
    "divisionName": "Sibsagar Division",
    "officeName": "Japichajia B.O",
    "pinCode": "785636",
    "officeType": "BO",
    "district": "JORHAT",
    "latitude": "26.7317",
    "longitude": "94.4677"
  },
  {
    "stateName": "ASSAM",
    "circleName": "Assam Circle",
    "regionName": "Dibrugarh Region",
    "divisionName": "Sibsagar Division",
    "officeName": "Namsisu B.O",
    "pinCode": "785636",
    "officeType": "BO",
    "district": "JORHAT",
    "latitude": "26.7317",
    "longitude": "94.4677"
  },
  {
    "stateName": "ASSAM",
    "circleName": "Assam Circle",
    "regionName": "Dibrugarh Region",
    "divisionName": "Sibsagar Division",
    "officeName": "Bejorchiga B.O",
    "pinCode": "785112",
    "officeType": "BO",
    "district": "JORHAT",
    "latitude": "26.4947",
    "longitude": "94.2422"
  },
  {
    "stateName": "ASSAM",
    "circleName": "Assam Circle",
    "regionName": "Dibrugarh Region",
    "divisionName": "Sibsagar Division",
    "officeName": "Bormathauri B.O",
    "pinCode": "785112",
    "officeType": "BO",
    "district": "JORHAT",
    "latitude": "26.4947",
    "longitude": "94.2422"
  },
  {
    "stateName": "ASSAM",
    "circleName": "Assam Circle",
    "regionName": "Dibrugarh Region",
    "divisionName": "Sibsagar Division",
    "officeName": "Jogduar Sonari B.O",
    "pinCode": "785112",
    "officeType": "BO",
    "district": "JORHAT",
    "latitude": "26.4947",
    "longitude": "94.2422"
  },
  {
    "stateName": "ASSAM",
    "circleName": "Assam Circle",
    "regionName": "Dibrugarh Region",
    "divisionName": "Sibsagar Division",
    "officeName": "Teok Rajabari B.O",
    "pinCode": "785112",
    "officeType": "BO",
    "district": "JORHAT",
    "latitude": "26.4947",
    "longitude": "94.2422"
  },
  {
    "stateName": "ASSAM",
    "circleName": "Assam Circle",
    "regionName": "Dibrugarh Region",
    "divisionName": "Sibsagar Division",
    "officeName": "Uttar Dulia B.O",
    "pinCode": "785112",
    "officeType": "BO",
    "district": "JORHAT",
    "latitude": "26.4947",
    "longitude": "94.2422"
  },
  {
    "stateName": "ASSAM",
    "circleName": "Assam Circle",
    "regionName": "Dibrugarh Region",
    "divisionName": "Sibsagar Division",
    "officeName": "Baruajan B.O",
    "pinCode": "785630",
    "officeType": "BO",
    "district": "JORHAT",
    "latitude": "26.6003888",
    "longitude": "94.2015277"
  },
  {
    "stateName": "ASSAM",
    "circleName": "Assam Circle",
    "regionName": "Dibrugarh Region",
    "divisionName": "Sibsagar Division",
    "officeName": "Madhapur B.O",
    "pinCode": "785630",
    "officeType": "BO",
    "district": "JORHAT",
    "latitude": "26.6003888",
    "longitude": "94.2015277"
  },
  {
    "stateName": "ASSAM",
    "circleName": "Assam Circle",
    "regionName": "Dibrugarh Region",
    "divisionName": "Sibsagar Division",
    "officeName": "Morangaon B.O",
    "pinCode": "785630",
    "officeType": "BO",
    "district": "JORHAT",
    "latitude": "26.6003888",
    "longitude": "94.2015277"
  },
  {
    "stateName": "ASSAM",
    "circleName": "Assam Circle",
    "regionName": "Dibrugarh Region",
    "divisionName": "Sibsagar Division",
    "officeName": "Sodial Kochari Gaon B.O",
    "pinCode": "785630",
    "officeType": "BO",
    "district": "JORHAT",
    "latitude": "26.6003888",
    "longitude": "94.2015277"
  },
  {
    "stateName": "ASSAM",
    "circleName": "Assam Circle",
    "regionName": "Dibrugarh Region",
    "divisionName": "Sibsagar Division",
    "officeName": "Titabor Mohimabari B.O",
    "pinCode": "785630",
    "officeType": "BO",
    "district": "JORHAT",
    "latitude": "26.6003888",
    "longitude": "94.2015277"
  },
  {
    "stateName": "ASSAM",
    "circleName": "Assam Circle",
    "regionName": "Dibrugarh Region",
    "divisionName": "Sibsagar Division",
    "officeName": "Lalimchiga B.O",
    "pinCode": "785680",
    "officeType": "BO",
    "district": "SIVASAGAR",
    "latitude": "26.8118333",
    "longitude": "94.5207222"
  },
  {
    "stateName": "ASSAM",
    "circleName": "Assam Circle",
    "regionName": "Dibrugarh Region",
    "divisionName": "Sibsagar Division",
    "officeName": "Majbari B.O",
    "pinCode": "785680",
    "officeType": "BO",
    "district": "SIVASAGAR",
    "latitude": "26.8118333",
    "longitude": "94.5207222"
  },
  {
    "stateName": "ASSAM",
    "circleName": "Assam Circle",
    "regionName": "Dibrugarh Region",
    "divisionName": "Sibsagar Division",
    "officeName": "SAMAGURI BO",
    "pinCode": "785680",
    "officeType": "BO",
    "district": "SIVASAGAR",
    "latitude": "26.8118333",
    "longitude": "94.5207222"
  },
  {
    "stateName": "ASSAM",
    "circleName": "Assam Circle",
    "regionName": "Dibrugarh Region",
    "divisionName": "Sibsagar Division",
    "officeName": "Miripather B.O",
    "pinCode": "785691",
    "officeType": "BO",
    "district": "CHARAIDEO",
    "latitude": "26.1234",
    "longitude": "91.1234"
  },
  {
    "stateName": "ASSAM",
    "circleName": "Assam Circle",
    "regionName": "Dibrugarh Region",
    "divisionName": "Sibsagar Division",
    "officeName": "Ronga Bam Habi B.O",
    "pinCode": "785691",
    "officeType": "BO",
    "district": "CHARAIDEO",
    "latitude": "26.1234",
    "longitude": "91.1234"
  },
  {
    "stateName": "ASSAM",
    "circleName": "Assam Circle",
    "regionName": "Dibrugarh Region",
    "divisionName": "Sibsagar Division",
    "officeName": "Teok Gaon B.O",
    "pinCode": "785691",
    "officeType": "BO",
    "district": "CHARAIDEO",
    "latitude": "26.1234",
    "longitude": "91.1234"
  },
  {
    "stateName": "ASSAM",
    "circleName": "Assam Circle",
    "regionName": "Dibrugarh Region",
    "divisionName": "Sibsagar Division",
    "officeName": "Baruatigaon B.O",
    "pinCode": "785661",
    "officeType": "BO",
    "district": "SIVASAGAR",
    "latitude": "24.5816",
    "longitude": "92.1615"
  },
  {
    "stateName": "ASSAM",
    "circleName": "Assam Circle",
    "regionName": "Dibrugarh Region",
    "divisionName": "Sibsagar Division",
    "officeName": "Udaypur B.O",
    "pinCode": "785662",
    "officeType": "BO",
    "district": "SIVASAGAR",
    "latitude": "27.1266666",
    "longitude": "94.7400277"
  },
  {
    "stateName": "ASSAM",
    "circleName": "Assam Circle",
    "regionName": "Dibrugarh Region",
    "divisionName": "Sibsagar Division",
    "officeName": "Chenimora B.O",
    "pinCode": "785663",
    "officeType": "BO",
    "district": "SIVASAGAR",
    "latitude": "25.1518",
    "longitude": "92.5816"
  },
  {
    "stateName": "ASSAM",
    "circleName": "Assam Circle",
    "regionName": "Dibrugarh Region",
    "divisionName": "Sibsagar Division",
    "officeName": "Komorajan B.O",
    "pinCode": "785664",
    "officeType": "BO",
    "district": "SIVASAGAR",
    "latitude": "26.5628",
    "longitude": "94.3211"
  },
  {
    "stateName": "ASSAM",
    "circleName": "Assam Circle",
    "regionName": "Dibrugarh Region",
    "divisionName": "Sibsagar Division",
    "officeName": "Singibill B.O",
    "pinCode": "785696",
    "officeType": "BO",
    "district": "SIVASAGAR",
    "latitude": "23.5716",
    "longitude": "92.3419"
  },
  {
    "stateName": "ASSAM",
    "circleName": "Assam Circle",
    "regionName": "Dibrugarh Region",
    "divisionName": "Sibsagar Division",
    "officeName": "Bamunpukhuri B.O",
    "pinCode": "785683",
    "officeType": "BO",
    "district": "JORHAT",
    "latitude": "26.5046",
    "longitude": "94.2934"
  },
  {
    "stateName": "ASSAM",
    "circleName": "Assam Circle",
    "regionName": "Dibrugarh Region",
    "divisionName": "Sibsagar Division",
    "officeName": "Bonai B.O",
    "pinCode": "785683",
    "officeType": "BO",
    "district": "JORHAT",
    "latitude": "26.5046",
    "longitude": "94.2934"
  },
  {
    "stateName": "ASSAM",
    "circleName": "Assam Circle",
    "regionName": "Dibrugarh Region",
    "divisionName": "Sibsagar Division",
    "officeName": "Kawaimari Gohaingaon B.O",
    "pinCode": "785683",
    "officeType": "BO",
    "district": "JORHAT",
    "latitude": "26.5046",
    "longitude": "94.2934"
  },
  {
    "stateName": "ASSAM",
    "circleName": "Assam Circle",
    "regionName": "Dibrugarh Region",
    "divisionName": "Sibsagar Division",
    "officeName": "Pathalial B.O",
    "pinCode": "785683",
    "officeType": "BO",
    "district": "JORHAT",
    "latitude": "26.5046",
    "longitude": "94.2934"
  },
  {
    "stateName": "ASSAM",
    "circleName": "Assam Circle",
    "regionName": "Dibrugarh Region",
    "divisionName": "Sibsagar Division",
    "officeName": "Robigaon B.O",
    "pinCode": "785683",
    "officeType": "BO",
    "district": "JORHAT",
    "latitude": "26.5046",
    "longitude": "94.2934"
  },
  {
    "stateName": "ASSAM",
    "circleName": "Assam Circle",
    "regionName": "Dibrugarh Region",
    "divisionName": "Sibsagar Division",
    "officeName": "Teteliguri B.O",
    "pinCode": "785683",
    "officeType": "BO",
    "district": "JORHAT",
    "latitude": "26.5046",
    "longitude": "94.2934"
  },
  {
    "stateName": "ASSAM",
    "circleName": "Assam Circle",
    "regionName": "Dibrugarh Region",
    "divisionName": "Sibsagar Division",
    "officeName": "Nakatani B.O",
    "pinCode": "785667",
    "officeType": "BO",
    "district": "SIVASAGAR",
    "latitude": "26.123",
    "longitude": "94.123"
  },
  {
    "stateName": "ASSAM",
    "circleName": "Assam Circle",
    "regionName": "Dibrugarh Region",
    "divisionName": "Sibsagar Division",
    "officeName": "Khaloighogora B.O",
    "pinCode": "785688",
    "officeType": "BO",
    "district": "CHARAIDEO",
    "latitude": "24.1319",
    "longitude": "92.5624"
  },
  {
    "stateName": "ASSAM",
    "circleName": "Assam Circle",
    "regionName": "Dibrugarh Region",
    "divisionName": "Sibsagar Division",
    "officeName": "Silakuti B.O",
    "pinCode": "785698",
    "officeType": "BO",
    "district": "CHARAIDEO",
    "latitude": "24.3712",
    "longitude": "94.1215"
  },
  {
    "stateName": "ASSAM",
    "circleName": "Assam Circle",
    "regionName": "Dibrugarh Region",
    "divisionName": "Sibsagar Division",
    "officeName": "Photikachowa B.O",
    "pinCode": "785670",
    "officeType": "BO",
    "district": "CHARAIDEO",
    "latitude": "27.152",
    "longitude": "94.8809722"
  },
  {
    "stateName": "ASSAM",
    "circleName": "Assam Circle",
    "regionName": "Dibrugarh Region",
    "divisionName": "Sibsagar Division",
    "officeName": "Karchowa B.O",
    "pinCode": "785684",
    "officeType": "BO",
    "district": "SIVASAGAR",
    "latitude": "26.5909",
    "longitude": "94.3752"
  },
  {
    "stateName": "ASSAM",
    "circleName": "Assam Circle",
    "regionName": "Dibrugarh Region",
    "divisionName": "Sibsagar Division",
    "officeName": "Na Pam Baruati B.O",
    "pinCode": "785684",
    "officeType": "BO",
    "district": "SIVASAGAR",
    "latitude": "26.5909",
    "longitude": "94.3752"
  },
  {
    "stateName": "ASSAM",
    "circleName": "Assam Circle",
    "regionName": "Dibrugarh Region",
    "divisionName": "Sibsagar Division",
    "officeName": "Namti Pathar B.O",
    "pinCode": "785684",
    "officeType": "BO",
    "district": "SIVASAGAR",
    "latitude": "26.5909",
    "longitude": "94.3752"
  },
  {
    "stateName": "ASSAM",
    "circleName": "Assam Circle",
    "regionName": "Dibrugarh Region",
    "divisionName": "Sibsagar Division",
    "officeName": "Bamunpukhuri B.O",
    "pinCode": "785685",
    "officeType": "BO",
    "district": "SIVASAGAR",
    "latitude": "26.9886944",
    "longitude": "94.6318889"
  },
  {
    "stateName": "ASSAM",
    "circleName": "Assam Circle",
    "regionName": "Dibrugarh Region",
    "divisionName": "Sibsagar Division",
    "officeName": "Bortol B.O",
    "pinCode": "785685",
    "officeType": "BO",
    "district": "SIVASAGAR",
    "latitude": "26.9886944",
    "longitude": "94.6318889"
  },
  {
    "stateName": "ASSAM",
    "circleName": "Assam Circle",
    "regionName": "Dibrugarh Region",
    "divisionName": "Sibsagar Division",
    "officeName": "Samukjan B.O",
    "pinCode": "785671",
    "officeType": "BO",
    "district": "SIVASAGAR",
    "latitude": "23.5718",
    "longitude": "92.2614"
  },
  {
    "stateName": "ASSAM",
    "circleName": "Assam Circle",
    "regionName": "Dibrugarh Region",
    "divisionName": "Sibsagar Division",
    "officeName": "Gohaingaon B.O",
    "pinCode": "785697",
    "officeType": "BO",
    "district": "SIVASAGAR",
    "latitude": "26.9836944",
    "longitude": "94.6500833"
  },
  {
    "stateName": "ASSAM",
    "circleName": "Assam Circle",
    "regionName": "Dibrugarh Region",
    "divisionName": "Sibsagar Division",
    "officeName": "Joirapar B.O",
    "pinCode": "785697",
    "officeType": "BO",
    "district": "SIVASAGAR",
    "latitude": "26.9836944",
    "longitude": "94.6500833"
  },
  {
    "stateName": "ASSAM",
    "circleName": "Assam Circle",
    "regionName": "Dibrugarh Region",
    "divisionName": "Sibsagar Division",
    "officeName": "Kenduguri B.O",
    "pinCode": "785697",
    "officeType": "BO",
    "district": "SIVASAGAR",
    "latitude": "26.9836944",
    "longitude": "94.6500833"
  },
  {
    "stateName": "ASSAM",
    "circleName": "Assam Circle",
    "regionName": "Dibrugarh Region",
    "divisionName": "Sibsagar Division",
    "officeName": "Namtial Pathar B.O",
    "pinCode": "785697",
    "officeType": "BO",
    "district": "SIVASAGAR",
    "latitude": "26.9836944",
    "longitude": "94.6500833"
  },
  {
    "stateName": "ASSAM",
    "circleName": "Assam Circle",
    "regionName": "Dibrugarh Region",
    "divisionName": "Sibsagar Division",
    "officeName": "Gormur Miri Gaon B.O",
    "pinCode": "785687",
    "officeType": "BO",
    "district": "SIVASAGAR",
    "latitude": "26.8472",
    "longitude": "94.8027"
  },
  {
    "stateName": "ASSAM",
    "circleName": "Assam Circle",
    "regionName": "Dibrugarh Region",
    "divisionName": "Sibsagar Division",
    "officeName": "Barbaruakhat B.O",
    "pinCode": "785692",
    "officeType": "BO",
    "district": "CHARAIDEO",
    "latitude": "27.0639",
    "longitude": "95.0941"
  },
  {
    "stateName": "ASSAM",
    "circleName": "Assam Circle",
    "regionName": "Dibrugarh Region",
    "divisionName": "Sibsagar Division",
    "officeName": "Ghorajaan B.O",
    "pinCode": "785692",
    "officeType": "BO",
    "district": "CHARAIDEO",
    "latitude": "27.0639",
    "longitude": "95.0941"
  },
  {
    "stateName": "ASSAM",
    "circleName": "Assam Circle",
    "regionName": "Dibrugarh Region",
    "divisionName": "Sibsagar Division",
    "officeName": "Longpotia B.O",
    "pinCode": "785692",
    "officeType": "BO",
    "district": "CHARAIDEO",
    "latitude": "27.0639",
    "longitude": "95.0941"
  },
  {
    "stateName": "ASSAM",
    "circleName": "Assam Circle",
    "regionName": "Dibrugarh Region",
    "divisionName": "Sibsagar Division",
    "officeName": "Nagahat B.O",
    "pinCode": "785692",
    "officeType": "BO",
    "district": "CHARAIDEO",
    "latitude": "27.0639",
    "longitude": "95.0941"
  },
  {
    "stateName": "ASSAM",
    "circleName": "Assam Circle",
    "regionName": "Dibrugarh Region",
    "divisionName": "Sibsagar Division",
    "officeName": "Dubba B.O",
    "pinCode": "785673",
    "officeType": "BO",
    "district": "CHARAIDEO",
    "latitude": "23.4219",
    "longitude": "92.1615"
  },
  {
    "stateName": "ASSAM",
    "circleName": "Assam Circle",
    "regionName": "Dibrugarh Region",
    "divisionName": "Sibsagar Division",
    "officeName": "Moutgaon B.O",
    "pinCode": "785686",
    "officeType": "BO",
    "district": "SIVASAGAR",
    "latitude": "26.9225",
    "longitude": "94.7548"
  },
  {
    "stateName": "ASSAM",
    "circleName": "Assam Circle",
    "regionName": "Dibrugarh Region",
    "divisionName": "Sibsagar Division",
    "officeName": "Ramugaon B.O",
    "pinCode": "785686",
    "officeType": "BO",
    "district": "SIVASAGAR",
    "latitude": "26.9225",
    "longitude": "94.7548"
  },
  {
    "stateName": "ASSAM",
    "circleName": "Assam Circle",
    "regionName": "Dibrugarh Region",
    "divisionName": "Sibsagar Division",
    "officeName": "Aideopukhuri B.O",
    "pinCode": "785690",
    "officeType": "BO",
    "district": "CHARAIDEO",
    "latitude": "94.6318889",
    "longitude": "26.9886944"
  },
  {
    "stateName": "ASSAM",
    "circleName": "Assam Circle",
    "regionName": "Dibrugarh Region",
    "divisionName": "Sibsagar Division",
    "officeName": "Teokghat B.O",
    "pinCode": "785690",
    "officeType": "BO",
    "district": "CHARAIDEO",
    "latitude": "26.9886944",
    "longitude": "94.6318889"
  },
  {
    "stateName": "ASSAM",
    "circleName": "Assam Circle",
    "regionName": "Dibrugarh Region",
    "divisionName": "Sibsagar Division",
    "officeName": "Naphuk B.O",
    "pinCode": "785689",
    "officeType": "BO",
    "district": "CHARAIDEO",
    "latitude": "23.1345",
    "longitude": "92.4516"
  },
  {
    "stateName": "ASSAM",
    "circleName": "Assam Circle",
    "regionName": "Dibrugarh Region",
    "divisionName": "Sibsagar Division",
    "officeName": "Dagaon B.O",
    "pinCode": "785682",
    "officeType": "BO",
    "district": "JORHAT",
    "latitude": "26.5314",
    "longitude": "94.2801"
  },
  {
    "stateName": "ASSAM",
    "circleName": "Assam Circle",
    "regionName": "Dibrugarh Region",
    "divisionName": "Tinsukia Division",
    "officeName": "3 No Borbil B.O",
    "pinCode": "786171",
    "officeType": "BO",
    "district": "TINSUKIA",
    "latitude": "27.39",
    "longitude": "95.63"
  },
  {
    "stateName": "ASSAM",
    "circleName": "Assam Circle",
    "regionName": "Dibrugarh Region",
    "divisionName": "Tinsukia Division",
    "officeName": "Bhimpathar B.O",
    "pinCode": "786171",
    "officeType": "BO",
    "district": "TINSUKIA",
    "latitude": "27.39",
    "longitude": "95.63"
  },
  {
    "stateName": "ASSAM",
    "circleName": "Assam Circle",
    "regionName": "Dibrugarh Region",
    "divisionName": "Tinsukia Division",
    "officeName": "Golai B.O",
    "pinCode": "786171",
    "officeType": "BO",
    "district": "TINSUKIA",
    "latitude": "27.39",
    "longitude": "95.63"
  },
  {
    "stateName": "ASSAM",
    "circleName": "Assam Circle",
    "regionName": "Dibrugarh Region",
    "divisionName": "Tinsukia Division",
    "officeName": "Lakhipather B.O",
    "pinCode": "786171",
    "officeType": "BO",
    "district": "TINSUKIA",
    "latitude": "27.39",
    "longitude": "95.63"
  },
  {
    "stateName": "ASSAM",
    "circleName": "Assam Circle",
    "regionName": "Dibrugarh Region",
    "divisionName": "Tinsukia Division",
    "officeName": "Bindhakata B.O",
    "pinCode": "786189",
    "officeType": "BO",
    "district": "DIBRUGARH",
    "latitude": "27.39",
    "longitude": "95.62"
  },
  {
    "stateName": "ASSAM",
    "circleName": "Assam Circle",
    "regionName": "Dibrugarh Region",
    "divisionName": "Tinsukia Division",
    "officeName": "Rupbon B.O",
    "pinCode": "786151",
    "officeType": "BO",
    "district": "TINSUKIA",
    "latitude": "27.33",
    "longitude": "95.33"
  },
  {
    "stateName": "ASSAM",
    "circleName": "Assam Circle",
    "regionName": "Dibrugarh Region",
    "divisionName": "Tinsukia Division",
    "officeName": "Balijan T.E. B.O",
    "pinCode": "786601",
    "officeType": "BO",
    "district": "TINSUKIA",
    "latitude": "27.39",
    "longitude": "95.29"
  },
  {
    "stateName": "ASSAM",
    "circleName": "Assam Circle",
    "regionName": "Dibrugarh Region",
    "divisionName": "Tinsukia Division",
    "officeName": "Bishnupur B.O",
    "pinCode": "786188",
    "officeType": "BO",
    "district": "TINSUKIA",
    "latitude": "27.38",
    "longitude": "95.89"
  },
  {
    "stateName": "ASSAM",
    "circleName": "Assam Circle",
    "regionName": "Dibrugarh Region",
    "divisionName": "Tinsukia Division",
    "officeName": "Chellenguri B.O",
    "pinCode": "786152",
    "officeType": "BO",
    "district": "TINSUKIA",
    "latitude": "27.63",
    "longitude": "95.65"
  },
  {
    "stateName": "ASSAM",
    "circleName": "Assam Circle",
    "regionName": "Dibrugarh Region",
    "divisionName": "Tinsukia Division",
    "officeName": "Kailash Pur B.O",
    "pinCode": "786152",
    "officeType": "BO",
    "district": "TINSUKIA",
    "latitude": "27.63",
    "longitude": "95.65"
  },
  {
    "stateName": "ASSAM",
    "circleName": "Assam Circle",
    "regionName": "Dibrugarh Region",
    "divisionName": "Tinsukia Division",
    "officeName": "Talpathar B.O",
    "pinCode": "786152",
    "officeType": "BO",
    "district": "TINSUKIA",
    "latitude": "27.63",
    "longitude": "95.65"
  },
  {
    "stateName": "ASSAM",
    "circleName": "Assam Circle",
    "regionName": "Dibrugarh Region",
    "divisionName": "Tinsukia Division",
    "officeName": "Kumchai B.O",
    "pinCode": "786182",
    "officeType": "BO",
    "district": "TINSUKIA",
    "latitude": "27.28",
    "longitude": "95.68"
  },
  {
    "stateName": "ASSAM",
    "circleName": "Assam Circle",
    "regionName": "Dibrugarh Region",
    "divisionName": "Tinsukia Division",
    "officeName": "Tirap B.O",
    "pinCode": "786182",
    "officeType": "BO",
    "district": "TINSUKIA",
    "latitude": "27.28",
    "longitude": "95.68"
  },
  {
    "stateName": "ASSAM",
    "circleName": "Assam Circle",
    "regionName": "Dibrugarh Region",
    "divisionName": "Tinsukia Division",
    "officeName": "Agbandha Bengali Gaon B.O",
    "pinCode": "786187",
    "officeType": "BO",
    "district": "TINSUKIA",
    "latitude": "27.31",
    "longitude": "95.64"
  },
  {
    "stateName": "ASSAM",
    "circleName": "Assam Circle",
    "regionName": "Dibrugarh Region",
    "divisionName": "Tinsukia Division",
    "officeName": "Alubari B.O",
    "pinCode": "786181",
    "officeType": "BO",
    "district": "TINSUKIA",
    "latitude": "27.29",
    "longitude": "95.66"
  },
  {
    "stateName": "ASSAM",
    "circleName": "Assam Circle",
    "regionName": "Dibrugarh Region",
    "divisionName": "Tinsukia Division",
    "officeName": "Dibong B.O",
    "pinCode": "786181",
    "officeType": "BO",
    "district": "TINSUKIA",
    "latitude": "27.29",
    "longitude": "95.66"
  },
  {
    "stateName": "ASSAM",
    "circleName": "Assam Circle",
    "regionName": "Dibrugarh Region",
    "divisionName": "Tinsukia Division",
    "officeName": "Ketetong B.O",
    "pinCode": "786181",
    "officeType": "BO",
    "district": "TINSUKIA",
    "latitude": "27.29",
    "longitude": "95.66"
  },
  {
    "stateName": "ASSAM",
    "circleName": "Assam Circle",
    "regionName": "Dibrugarh Region",
    "divisionName": "Tinsukia Division",
    "officeName": "Margherita New Colony B.O",
    "pinCode": "786181",
    "officeType": "BO",
    "district": "TINSUKIA",
    "latitude": "27.29",
    "longitude": "95.66"
  },
  {
    "stateName": "ASSAM",
    "circleName": "Assam Circle",
    "regionName": "Dibrugarh Region",
    "divisionName": "Tinsukia Division",
    "officeName": "Ulup Gaon B.O",
    "pinCode": "786181",
    "officeType": "BO",
    "district": "TINSUKIA",
    "latitude": "27.29",
    "longitude": "95.66"
  },
  {
    "stateName": "ASSAM",
    "circleName": "Assam Circle",
    "regionName": "Dibrugarh Region",
    "divisionName": "Tinsukia Division",
    "officeName": "Baruahola B.O",
    "pinCode": "786183",
    "officeType": "BO",
    "district": "TINSUKIA",
    "latitude": "27.49",
    "longitude": "95.25"
  },
  {
    "stateName": "ASSAM",
    "circleName": "Assam Circle",
    "regionName": "Dibrugarh Region",
    "divisionName": "Tinsukia Division",
    "officeName": "Bogdung B.O",
    "pinCode": "786183",
    "officeType": "BO",
    "district": "DIBRUGARH",
    "latitude": "27.49",
    "longitude": "95.25"
  },
  {
    "stateName": "ASSAM",
    "circleName": "Assam Circle",
    "regionName": "Dibrugarh Region",
    "divisionName": "Tinsukia Division",
    "officeName": "Kathalguri B.O",
    "pinCode": "786174",
    "officeType": "BO",
    "district": "TINSUKIA",
    "latitude": "27.39",
    "longitude": "95.63"
  },
  {
    "stateName": "ASSAM",
    "circleName": "Assam Circle",
    "regionName": "Dibrugarh Region",
    "divisionName": "Tinsukia Division",
    "officeName": "Hollong Gutibari B.O",
    "pinCode": "786160",
    "officeType": "BO",
    "district": "TINSUKIA",
    "latitude": "27.55",
    "longitude": "95.69"
  },
  {
    "stateName": "ASSAM",
    "circleName": "Assam Circle",
    "regionName": "Dibrugarh Region",
    "divisionName": "Tinsukia Division",
    "officeName": "Limbuguri B.O",
    "pinCode": "786147",
    "officeType": "BO",
    "district": "TINSUKIA",
    "latitude": "27.56",
    "longitude": "95.32"
  },
  {
    "stateName": "ASSAM",
    "circleName": "Assam Circle",
    "regionName": "Dibrugarh Region",
    "divisionName": "Tinsukia Division",
    "officeName": "Lohari B.O",
    "pinCode": "786146",
    "officeType": "BO",
    "district": "TINSUKIA",
    "latitude": "26.34",
    "longitude": "94.07"
  },
  {
    "stateName": "ASSAM",
    "circleName": "Assam Circle",
    "regionName": "Dibrugarh Region",
    "divisionName": "Tinsukia Division",
    "officeName": "Bordoloinagar B.O",
    "pinCode": "786156",
    "officeType": "BO",
    "district": "TINSUKIA",
    "latitude": "27.48",
    "longitude": "95.35"
  },
  {
    "stateName": "ASSAM",
    "circleName": "Assam Circle",
    "regionName": "Dibrugarh Region",
    "divisionName": "Tinsukia Division",
    "officeName": "Dangrigaon B.O",
    "pinCode": "786156",
    "officeType": "BO",
    "district": "TINSUKIA",
    "latitude": "27.48",
    "longitude": "95.35"
  },
  {
    "stateName": "ASSAM",
    "circleName": "Assam Circle",
    "regionName": "Dibrugarh Region",
    "divisionName": "Tinsukia Division",
    "officeName": "Gakhirbheti B.O",
    "pinCode": "786156",
    "officeType": "BO",
    "district": "TINSUKIA",
    "latitude": "27.48",
    "longitude": "95.35"
  },
  {
    "stateName": "ASSAM",
    "circleName": "Assam Circle",
    "regionName": "DivReportingCircle",
    "divisionName": "Goalpara Division",
    "officeName": "Deohati B.O",
    "pinCode": "783384",
    "officeType": "BO",
    "district": "BONGAIGAON",
    "latitude": "NA",
    "longitude": "NA"
  },
  {
    "stateName": "ASSAM",
    "circleName": "Assam Circle",
    "regionName": "DivReportingCircle",
    "divisionName": "Goalpara Division",
    "officeName": "Markula B.O",
    "pinCode": "783120",
    "officeType": "BO",
    "district": "GOALPARA",
    "latitude": "NA",
    "longitude": "NA"
  },
  {
    "stateName": "ASSAM",
    "circleName": "Assam Circle",
    "regionName": "DivReportingCircle",
    "divisionName": "Goalpara Division",
    "officeName": "Pabarchara B.O",
    "pinCode": "783335",
    "officeType": "BO",
    "district": "DHUBRI",
    "latitude": "26.186589",
    "longitude": "89.742254"
  },
  {
    "stateName": "ASSAM",
    "circleName": "Assam Circle",
    "regionName": "DivReportingCircle",
    "divisionName": "Goalpara Division",
    "officeName": "Pokalagi B.O",
    "pinCode": "783335",
    "officeType": "BO",
    "district": "DHUBRI",
    "latitude": "26.345541",
    "longitude": "89.862202"
  },
  {
    "stateName": "ASSAM",
    "circleName": "Assam Circle",
    "regionName": "DivReportingCircle",
    "divisionName": "Goalpara Division",
    "officeName": "Borshijhora B.O",
    "pinCode": "783339",
    "officeType": "BO",
    "district": "DHUBRI",
    "latitude": "26.479789",
    "longitude": "90.15535"
  },
  {
    "stateName": "ASSAM",
    "circleName": "Assam Circle",
    "regionName": "DivReportingCircle",
    "divisionName": "Goalpara Division",
    "officeName": "Jharnerchar B.O",
    "pinCode": "783339",
    "officeType": "BO",
    "district": "DHUBRI",
    "latitude": "26.021383",
    "longitude": "90.000583"
  },
  {
    "stateName": "ASSAM",
    "circleName": "Assam Circle",
    "regionName": "DivReportingCircle",
    "divisionName": "Goalpara Division",
    "officeName": "Podmeralga B.O",
    "pinCode": "783339",
    "officeType": "BO",
    "district": "DHUBRI",
    "latitude": "26.087529",
    "longitude": "90.072051"
  },
  {
    "stateName": "ASSAM",
    "circleName": "Assam Circle",
    "regionName": "DivReportingCircle",
    "divisionName": "Goalpara Division",
    "officeName": "Rangamati B.O",
    "pinCode": "783339",
    "officeType": "BO",
    "district": "DHUBRI",
    "latitude": "26.277765",
    "longitude": "93.931747"
  },
  {
    "stateName": "ASSAM",
    "circleName": "Assam Circle",
    "regionName": "DivReportingCircle",
    "divisionName": "Goalpara Division",
    "officeName": "Aironjongla B.O",
    "pinCode": "783323",
    "officeType": "BO",
    "district": "DHUBRI",
    "latitude": "26.177943",
    "longitude": "91.737457"
  },
  {
    "stateName": "ASSAM",
    "circleName": "Assam Circle",
    "regionName": "DivReportingCircle",
    "divisionName": "Goalpara Division",
    "officeName": "Gutipara B.O",
    "pinCode": "783348",
    "officeType": "BO",
    "district": "DHUBRI",
    "latitude": "NA",
    "longitude": "NA"
  },
  {
    "stateName": "ASSAM",
    "circleName": "Assam Circle",
    "regionName": "DivReportingCircle",
    "divisionName": "Goalpara Division",
    "officeName": "Chatonilibari B.O",
    "pinCode": "783394",
    "officeType": "BO",
    "district": "CHIRANG",
    "latitude": "26.586628",
    "longitude": "90.509244"
  },
  {
    "stateName": "ASSAM",
    "circleName": "Assam Circle",
    "regionName": "DivReportingCircle",
    "divisionName": "Goalpara Division",
    "officeName": "Chagalchara B.O",
    "pinCode": "783324",
    "officeType": "BO",
    "district": "DHUBRI",
    "latitude": "26.028078",
    "longitude": "89.942839"
  },
  {
    "stateName": "ASSAM",
    "circleName": "Assam Circle",
    "regionName": "DivReportingCircle",
    "divisionName": "Goalpara Division",
    "officeName": "Bhandra Bazar B.O",
    "pinCode": "783390",
    "officeType": "BO",
    "district": "CHIRANG",
    "latitude": "26.44215",
    "longitude": "90.736315"
  },
  {
    "stateName": "ASSAM",
    "circleName": "Assam Circle",
    "regionName": "DivReportingCircle",
    "divisionName": "Goalpara Division",
    "officeName": "Dakshin Bijni B.O",
    "pinCode": "783390",
    "officeType": "BO",
    "district": "CHIRANG",
    "latitude": "26.47082",
    "longitude": "90.732587"
  },
  {
    "stateName": "ASSAM",
    "circleName": "Assam Circle",
    "regionName": "DivReportingCircle",
    "divisionName": "Goalpara Division",
    "officeName": "Hanchara B.O",
    "pinCode": "783390",
    "officeType": "BO",
    "district": "CHIRANG",
    "latitude": "27.363032",
    "longitude": "94.970158"
  },
  {
    "stateName": "ASSAM",
    "circleName": "Assam Circle",
    "regionName": "DivReportingCircle",
    "divisionName": "Goalpara Division",
    "officeName": "Silkhaguri B.O",
    "pinCode": "783390",
    "officeType": "BO",
    "district": "CHIRANG",
    "latitude": "26.016864",
    "longitude": "92.825304"
  },
  {
    "stateName": "ASSAM",
    "circleName": "Assam Circle",
    "regionName": "DivReportingCircle",
    "divisionName": "Goalpara Division",
    "officeName": "Dhirbil B.O",
    "pinCode": "783348",
    "officeType": "BO",
    "district": "DHUBRI",
    "latitude": "26.294898",
    "longitude": "90.388962"
  },
  {
    "stateName": "ASSAM",
    "circleName": "Assam Circle",
    "regionName": "DivReportingCircle",
    "divisionName": "Goalpara Division",
    "officeName": "Tilapara B.O",
    "pinCode": "783348",
    "officeType": "BO",
    "district": "DHUBRI",
    "latitude": "26.3983507",
    "longitude": "90.3348292"
  },
  {
    "stateName": "ASSAM",
    "circleName": "Assam Circle",
    "regionName": "DivReportingCircle",
    "divisionName": "Goalpara Division",
    "officeName": "Nayeralga Pt-I BO",
    "pinCode": "783348",
    "officeType": "BO",
    "district": "DHUBRI",
    "latitude": "26.22076",
    "longitude": "90.2425"
  },
  {
    "stateName": "ASSAM",
    "circleName": "Assam Circle",
    "regionName": "DivReportingCircle",
    "divisionName": "Goalpara Division",
    "officeName": "Chakapara B.O",
    "pinCode": "783380",
    "officeType": "BO",
    "district": "BONGAIGAON",
    "latitude": "26.485938",
    "longitude": "90.613311"
  },
  {
    "stateName": "ASSAM",
    "circleName": "Assam Circle",
    "regionName": "DivReportingCircle",
    "divisionName": "Goalpara Division",
    "officeName": "Chipansila B.O",
    "pinCode": "783380",
    "officeType": "BO",
    "district": "BONGAIGAON",
    "latitude": "26.417374",
    "longitude": "90.605305"
  },
  {
    "stateName": "ASSAM",
    "circleName": "Assam Circle",
    "regionName": "DivReportingCircle",
    "divisionName": "Goalpara Division",
    "officeName": "Khagrabari B.O",
    "pinCode": "783380",
    "officeType": "BO",
    "district": "BONGAIGAON",
    "latitude": "26.770922",
    "longitude": "91.770922"
  },
  {
    "stateName": "ASSAM",
    "circleName": "Assam Circle",
    "regionName": "DivReportingCircle",
    "divisionName": "Goalpara Division",
    "officeName": "Betini B.O",
    "pinCode": "783393",
    "officeType": "BO",
    "district": "CHIRANG",
    "latitude": "26.751045",
    "longitude": "90.519819"
  },
  {
    "stateName": "ASSAM",
    "circleName": "Assam Circle",
    "regionName": "DivReportingCircle",
    "divisionName": "Goalpara Division",
    "officeName": "Joypur B.O",
    "pinCode": "783393",
    "officeType": "BO",
    "district": "CHIRANG",
    "latitude": "26.391131",
    "longitude": "90.25379"
  },
  {
    "stateName": "ASSAM",
    "circleName": "Assam Circle",
    "regionName": "DivReportingCircle",
    "divisionName": "Goalpara Division",
    "officeName": "Bagdoba B.O",
    "pinCode": "783123",
    "officeType": "BO",
    "district": "GOALPARA",
    "latitude": "NA",
    "longitude": "NA"
  },
  {
    "stateName": "ASSAM",
    "circleName": "Assam Circle",
    "regionName": "DivReportingCircle",
    "divisionName": "Goalpara Division",
    "officeName": "Bandarshi B.O",
    "pinCode": "783124",
    "officeType": "BO",
    "district": "GOALPARA",
    "latitude": "NA",
    "longitude": "NA"
  },
  {
    "stateName": "ASSAM",
    "circleName": "Assam Circle",
    "regionName": "DivReportingCircle",
    "divisionName": "Goalpara Division",
    "officeName": "Manupara B.O",
    "pinCode": "783124",
    "officeType": "BO",
    "district": "GOALPARA",
    "latitude": "NA",
    "longitude": "NA"
  },
  {
    "stateName": "ASSAM",
    "circleName": "Assam Circle",
    "regionName": "DivReportingCircle",
    "divisionName": "Goalpara Division",
    "officeName": "Hamidabad B.O",
    "pinCode": "783330",
    "officeType": "BO",
    "district": "DHUBRI",
    "latitude": "25.95741",
    "longitude": "90.072173"
  },
  {
    "stateName": "ASSAM",
    "circleName": "Assam Circle",
    "regionName": "DivReportingCircle",
    "divisionName": "Goalpara Division",
    "officeName": "Khalisabhita B.O",
    "pinCode": "783330",
    "officeType": "BO",
    "district": "DHUBRI",
    "latitude": "26.038884",
    "longitude": "90.28959"
  },
  {
    "stateName": "ASSAM",
    "circleName": "Assam Circle",
    "regionName": "DivReportingCircle",
    "divisionName": "Goalpara Division",
    "officeName": "Purandiara B.O",
    "pinCode": "783136",
    "officeType": "BO",
    "district": "SOUTH SALMARA MANCACHAR",
    "latitude": "NA",
    "longitude": "NA"
  },
  {
    "stateName": "ASSAM",
    "circleName": "Assam Circle",
    "regionName": "DivReportingCircle",
    "divisionName": "Goalpara Division",
    "officeName": "Rupsi B.O",
    "pinCode": "783331",
    "officeType": "BO",
    "district": "KOKRAJHAR",
    "latitude": "26.134453",
    "longitude": "89.938169"
  },
  {
    "stateName": "ASSAM",
    "circleName": "Assam Circle",
    "regionName": "DivReportingCircle",
    "divisionName": "Goalpara Division",
    "officeName": "Bashbari Pt-II BO",
    "pinCode": "783331",
    "officeType": "BO",
    "district": "DHUBRI",
    "latitude": "26.203369",
    "longitude": "89.91501"
  },
  {
    "stateName": "ASSAM",
    "circleName": "Assam Circle",
    "regionName": "DivReportingCircle",
    "divisionName": "Goalpara Division",
    "officeName": "Dakurbhita B.O",
    "pinCode": "783101",
    "officeType": "BO",
    "district": "GOALPARA",
    "latitude": "NA",
    "longitude": "NA"
  },
  {
    "stateName": "ASSAM",
    "circleName": "Assam Circle",
    "regionName": "DivReportingCircle",
    "divisionName": "Goalpara Division",
    "officeName": "Belguri B.O",
    "pinCode": "783334",
    "officeType": "BO",
    "district": "DHUBRI",
    "latitude": "26.327752",
    "longitude": "89.796633"
  },
  {
    "stateName": "ASSAM",
    "circleName": "Assam Circle",
    "regionName": "DivReportingCircle",
    "divisionName": "Goalpara Division",
    "officeName": "Bishkhowa B.O",
    "pinCode": "783334",
    "officeType": "BO",
    "district": "DHUBRI",
    "latitude": "26.135924",
    "longitude": "89.925323"
  },
  {
    "stateName": "ASSAM",
    "circleName": "Assam Circle",
    "regionName": "DivReportingCircle",
    "divisionName": "Goalpara Division",
    "officeName": "Debottar Hasdaha B.O",
    "pinCode": "783334",
    "officeType": "BO",
    "district": "DHUBRI",
    "latitude": "26.063514",
    "longitude": "89.893775"
  },
  {
    "stateName": "ASSAM",
    "circleName": "Assam Circle",
    "regionName": "DivReportingCircle",
    "divisionName": "Goalpara Division",
    "officeName": "Kachakhana B.O",
    "pinCode": "783334",
    "officeType": "BO",
    "district": "DHUBRI",
    "latitude": "26.227443",
    "longitude": "89.862202"
  },
  {
    "stateName": "ASSAM",
    "circleName": "Assam Circle",
    "regionName": "DivReportingCircle",
    "divisionName": "Goalpara Division",
    "officeName": "Kismat Hasdaha B.O",
    "pinCode": "783334",
    "officeType": "BO",
    "district": "DHUBRI",
    "latitude": "26.050213",
    "longitude": "89.890269"
  },
  {
    "stateName": "ASSAM",
    "circleName": "Assam Circle",
    "regionName": "DivReportingCircle",
    "divisionName": "Goalpara Division",
    "officeName": "Molandubi B.O",
    "pinCode": "783332",
    "officeType": "BO",
    "district": "DHUBRI",
    "latitude": "NA",
    "longitude": "NA"
  },
  {
    "stateName": "ASSAM",
    "circleName": "Assam Circle",
    "regionName": "DivReportingCircle",
    "divisionName": "Goalpara Division",
    "officeName": "Tokrerchara B.O",
    "pinCode": "783334",
    "officeType": "BO",
    "district": "DHUBRI",
    "latitude": "26.188676",
    "longitude": "89.857818"
  },
  {
    "stateName": "ASSAM",
    "circleName": "Assam Circle",
    "regionName": "DivReportingCircle",
    "divisionName": "Goalpara Division",
    "officeName": "Khalilpur B.O",
    "pinCode": "783325",
    "officeType": "BO",
    "district": "DHUBRI",
    "latitude": "26.022746",
    "longitude": "89.96693"
  },
  {
    "stateName": "ASSAM",
    "circleName": "Assam Circle",
    "regionName": "DivReportingCircle",
    "divisionName": "Goalpara Division",
    "officeName": "Barjana B.O",
    "pinCode": "783382",
    "officeType": "BO",
    "district": "BONGAIGAON",
    "latitude": "NA",
    "longitude": "NA"
  },
  {
    "stateName": "ASSAM",
    "circleName": "Assam Circle",
    "regionName": "DivReportingCircle",
    "divisionName": "Goalpara Division",
    "officeName": "Zira B.O",
    "pinCode": "783126",
    "officeType": "BO",
    "district": "GOALPARA",
    "latitude": "NA",
    "longitude": "NA"
  },
  {
    "stateName": "ASSAM",
    "circleName": "Assam Circle",
    "regionName": "DivReportingCircle",
    "divisionName": "Goalpara Division",
    "officeName": "Beserkona B.O",
    "pinCode": "783129",
    "officeType": "BO",
    "district": "GOALPARA",
    "latitude": "NA",
    "longitude": "NA"
  },
  {
    "stateName": "ASSAM",
    "circleName": "Assam Circle",
    "regionName": "DivReportingCircle",
    "divisionName": "Goalpara Division",
    "officeName": "Aolaguri B.O",
    "pinCode": "783392",
    "officeType": "BO",
    "district": "BONGAIGAON",
    "latitude": "26.016864",
    "longitude": "92.825304"
  },
  {
    "stateName": "ASSAM",
    "circleName": "Assam Circle",
    "regionName": "DivReportingCircle",
    "divisionName": "Goalpara Division",
    "officeName": "Chakla B.O",
    "pinCode": "783392",
    "officeType": "BO",
    "district": "BONGAIGAON",
    "latitude": "26.390343",
    "longitude": "90.84607"
  },
  {
    "stateName": "ASSAM",
    "circleName": "Assam Circle",
    "regionName": "DivReportingCircle",
    "divisionName": "Goalpara Division",
    "officeName": "Dompara B.O",
    "pinCode": "783392",
    "officeType": "BO",
    "district": "BONGAIGAON",
    "latitude": "26.449731",
    "longitude": "90.779431"
  },
  {
    "stateName": "ASSAM",
    "circleName": "Assam Circle",
    "regionName": "DivReportingCircle",
    "divisionName": "Goalpara Division",
    "officeName": "Barkona B.O",
    "pinCode": "783131",
    "officeType": "BO",
    "district": "SOUTH SALMARA MANCACHAR",
    "latitude": "NA",
    "longitude": "NA"
  },
  {
    "stateName": "ASSAM",
    "circleName": "Assam Circle",
    "regionName": "DivReportingCircle",
    "divisionName": "Goalpara Division",
    "officeName": "Jhowdanga B.O",
    "pinCode": "783131",
    "officeType": "BO",
    "district": "SOUTH SALMARA MANCACHAR",
    "latitude": "NA",
    "longitude": "NA"
  },
  {
    "stateName": "ASSAM",
    "circleName": "Assam Circle",
    "regionName": "DivReportingCircle",
    "divisionName": "Goalpara Division",
    "officeName": "Radhamadhabhat B.O",
    "pinCode": "783131",
    "officeType": "BO",
    "district": "SOUTH SALMARA MANCACHAR",
    "latitude": "NA",
    "longitude": "NA"
  },
  {
    "stateName": "ASSAM",
    "circleName": "Assam Circle",
    "regionName": "DivReportingCircle",
    "divisionName": "Goalpara Division",
    "officeName": "Dalgoma B.O",
    "pinCode": "783125",
    "officeType": "BO",
    "district": "GOALPARA",
    "latitude": "NA",
    "longitude": "NA"
  },
  {
    "stateName": "ASSAM",
    "circleName": "Assam Circle",
    "regionName": "DivReportingCircle",
    "divisionName": "Goalpara Division",
    "officeName": "Gossaibari B.O",
    "pinCode": "783125",
    "officeType": "BO",
    "district": "GOALPARA",
    "latitude": "NA",
    "longitude": "NA"
  },
  {
    "stateName": "ASSAM",
    "circleName": "Assam Circle",
    "regionName": "DivReportingCircle",
    "divisionName": "Goalpara Division",
    "officeName": "Matia Bazar B.O",
    "pinCode": "783125",
    "officeType": "BO",
    "district": "GOALPARA",
    "latitude": "NA",
    "longitude": "NA"
  },
  {
    "stateName": "ASSAM",
    "circleName": "Assam Circle",
    "regionName": "DivReportingCircle",
    "divisionName": "Goalpara Division",
    "officeName": "Sutarpara B.O",
    "pinCode": "783125",
    "officeType": "BO",
    "district": "GOALPARA",
    "latitude": "NA",
    "longitude": "NA"
  },
  {
    "stateName": "ASSAM",
    "circleName": "Assam Circle",
    "regionName": "DivReportingCircle",
    "divisionName": "Goalpara Division",
    "officeName": "Monakocha B.O",
    "pinCode": "783391",
    "officeType": "BO",
    "district": "CHIRANG",
    "latitude": "26.473817",
    "longitude": "90.684421"
  },
  {
    "stateName": "ASSAM",
    "circleName": "Assam Circle",
    "regionName": "DivReportingCircle",
    "divisionName": "Goalpara Division",
    "officeName": "Kahibari B.O",
    "pinCode": "783130",
    "officeType": "BO",
    "district": "GOALPARA",
    "latitude": "NA",
    "longitude": "NA"
  },
  {
    "stateName": "ASSAM",
    "circleName": "Assam Circle",
    "regionName": "DivReportingCircle",
    "divisionName": "Goalpara Division",
    "officeName": "SILDUBIPARA PT II BO",
    "pinCode": "783130",
    "officeType": "BO",
    "district": "GOALPARA",
    "latitude": "NA",
    "longitude": "NA"
  },
  {
    "stateName": "ASSAM",
    "circleName": "Assam Circle",
    "regionName": "DivReportingCircle",
    "divisionName": "Goalpara Division",
    "officeName": "Bauskata B.O",
    "pinCode": "783127",
    "officeType": "BO",
    "district": "SOUTH SALMARA MANCACHAR",
    "latitude": "25.933495",
    "longitude": "90.012825"
  },
  {
    "stateName": "ASSAM",
    "circleName": "Assam Circle",
    "regionName": "DivReportingCircle",
    "divisionName": "Goalpara Division",
    "officeName": "Tumni B.O",
    "pinCode": "783127",
    "officeType": "BO",
    "district": "SOUTH SALMARA MANCACHAR",
    "latitude": "25.8729",
    "longitude": "89.879"
  },
  {
    "stateName": "ASSAM",
    "circleName": "Assam Circle",
    "regionName": "DivReportingCircle",
    "divisionName": "Goalpara Division",
    "officeName": "Piazbari B.O",
    "pinCode": "783128",
    "officeType": "BO",
    "district": "SOUTH SALMARA MANCACHAR",
    "latitude": "NA",
    "longitude": "NA"
  },
  {
    "stateName": "ASSAM",
    "circleName": "Assam Circle",
    "regionName": "DivReportingCircle",
    "divisionName": "Goalpara Division",
    "officeName": "Kashipara Bhotgaon B.O",
    "pinCode": "783370",
    "officeType": "BO",
    "district": "KOKRAJHAR",
    "latitude": "26.356201",
    "longitude": "90.24105"
  },
  {
    "stateName": "ASSAM",
    "circleName": "Assam Circle",
    "regionName": "DivReportingCircle",
    "divisionName": "Goalpara Division",
    "officeName": "Titaguri B.O",
    "pinCode": "783370",
    "officeType": "BO",
    "district": "KOKRAJHAR",
    "latitude": "26.451567",
    "longitude": "90.283135"
  },
  {
    "stateName": "ASSAM",
    "circleName": "Assam Circle",
    "regionName": "DivReportingCircle",
    "divisionName": "Goalpara Division",
    "officeName": "Bhalukmari B.O",
    "pinCode": "783347",
    "officeType": "BO",
    "district": "KOKRAJHAR",
    "latitude": "25.952989",
    "longitude": "92.955687"
  },
  {
    "stateName": "ASSAM",
    "circleName": "Assam Circle",
    "regionName": "DivReportingCircle",
    "divisionName": "Goalpara Division",
    "officeName": "Lawdanga B.O",
    "pinCode": "783347",
    "officeType": "BO",
    "district": "KOKRAJHAR",
    "latitude": "26.482747",
    "longitude": "90.148329"
  },
  {
    "stateName": "ASSAM",
    "circleName": "Assam Circle",
    "regionName": "DivReportingCircle",
    "divisionName": "Goalpara Division",
    "officeName": "Tetliguri B.O",
    "pinCode": "783347",
    "officeType": "BO",
    "district": "KOKRAJHAR",
    "latitude": "26.445865",
    "longitude": "90.151839"
  },
  {
    "stateName": "ASSAM",
    "circleName": "Assam Circle",
    "regionName": "DivReportingCircle",
    "divisionName": "Goalpara Division",
    "officeName": "Raniganj B.O",
    "pinCode": "783345",
    "officeType": "BO",
    "district": "KOKRAJHAR",
    "latitude": "26.30167",
    "longitude": "90.177825"
  },
  {
    "stateName": "ASSAM",
    "circleName": "Assam Circle",
    "regionName": "DivReportingCircle",
    "divisionName": "Goalpara Division",
    "officeName": "Shesergaon B.O",
    "pinCode": "783345",
    "officeType": "BO",
    "district": "KOKRAJHAR",
    "latitude": "26.30157",
    "longitude": "90.176825"
  },
  {
    "stateName": "ASSAM",
    "circleName": "Assam Circle",
    "regionName": "DivReportingCircle",
    "divisionName": "Goalpara Division",
    "officeName": "Bhodeaguri B.O",
    "pinCode": "783360",
    "officeType": "BO",
    "district": "KOKRAJHAR",
    "latitude": "26.490869",
    "longitude": "90.020006"
  },
  {
    "stateName": "ASSAM",
    "circleName": "Assam Circle",
    "regionName": "DivReportingCircle",
    "divisionName": "Goalpara Division",
    "officeName": "Machangdoba FV BO",
    "pinCode": "783360",
    "officeType": "BO",
    "district": "KOKRAJHAR",
    "latitude": "26.392636",
    "longitude": "89.962655"
  },
  {
    "stateName": "ASSAM",
    "circleName": "Assam Circle",
    "regionName": "DivReportingCircle",
    "divisionName": "Goalpara Division",
    "officeName": "Gangia B.O",
    "pinCode": "783350",
    "officeType": "BO",
    "district": "KOKRAJHAR",
    "latitude": "26.602342",
    "longitude": "90.131741"
  },
  {
    "stateName": "ASSAM",
    "circleName": "Assam Circle",
    "regionName": "DivReportingCircle",
    "divisionName": "Goalpara Division",
    "officeName": "Saraibil B.O",
    "pinCode": "783350",
    "officeType": "BO",
    "district": "KOKRAJHAR",
    "latitude": "26.63321",
    "longitude": "89.933498"
  },
  {
    "stateName": "ASSAM",
    "circleName": "Assam Circle",
    "regionName": "DivReportingCircle",
    "divisionName": "Goalpara Division",
    "officeName": "JONALIGAON FV BO",
    "pinCode": "783350",
    "officeType": "BO",
    "district": "KOKRAJHAR",
    "latitude": "26.650937",
    "longitude": "89.960703"
  },
  {
    "stateName": "ASSAM",
    "circleName": "Assam Circle",
    "regionName": "DivReportingCircle",
    "divisionName": "Goalpara Division",
    "officeName": "Oxiguri BO",
    "pinCode": "783350",
    "officeType": "BO",
    "district": "KOKRAJHAR",
    "latitude": "26.635549",
    "longitude": "89.992011"
  },