[
  {
    "stateName": "CHHATTISGARH",
    "circleName": "Chattisgarh Circle",
    "regionName": "DivReportingCircle",
    "divisionName": "Bastar Division",
    "officeName": "Dimrapal B.O",
    "pinCode": "494001",
    "officeType": "BO",
    "district": "RAIPUR",
    "latitude": "19.2494",
    "longitude": "81.5642"
  },
  {
    "stateName": "CHHATTISGARH",
    "circleName": "Chattisgarh Circle",
    "regionName": "DivReportingCircle",
    "divisionName": "Bastar Division",
    "officeName": "Sadgud B.O",
    "pinCode": "494001",
    "officeType": "BO",
    "district": "RAIPUR",
    "latitude": "19.0314",
    "longitude": "82.2143"
  },
  {
    "stateName": "CHHATTISGARH",
    "circleName": "Chattisgarh Circle",
    "regionName": "DivReportingCircle",
    "divisionName": "Bastar Division",
    "officeName": "Garawandkhurd B.O",
    "pinCode": "494001",
    "officeType": "BO",
    "district": "RAIPUR",
    "latitude": "19.063",
    "longitude": "82.004"
  },
  {
    "stateName": "CHHATTISGARH",
    "circleName": "Chattisgarh Circle",
    "regionName": "DivReportingCircle",
    "divisionName": "Bastar Division",
    "officeName": "Karkapal B.O",
    "pinCode": "494001",
    "officeType": "BO",
    "district": "RAIPUR",
    "latitude": "19.062",
    "longitude": "82.003"
  },
  {
    "stateName": "CHHATTISGARH",
    "circleName": "Chattisgarh Circle",
    "regionName": "DivReportingCircle",
    "divisionName": "Bastar Division",
    "officeName": "Palli B.O",
    "pinCode": "494001",
    "officeType": "BO",
    "district": "RAIPUR",
    "latitude": "19.064",
    "longitude": "82.007"
  },
  {
    "stateName": "CHHATTISGARH",
    "circleName": "Chattisgarh Circle",
    "regionName": "DivReportingCircle",
    "divisionName": "Bastar Division",
    "officeName": "Takameta B.O",
    "pinCode": "494001",
    "officeType": "BO",
    "district": "RAIPUR",
    "latitude": "19.073",
    "longitude": "82.001"
  },
  {
    "stateName": "CHHATTISGARH",
    "circleName": "Chattisgarh Circle",
    "regionName": "DivReportingCircle",
    "divisionName": "Bastar Division",
    "officeName": "Karanpur B.O",
    "pinCode": "494001",
    "officeType": "BO",
    "district": "RAIPUR",
    "latitude": "19.1126",
    "longitude": "82.1468"
  },
  {
    "stateName": "CHHATTISGARH",
    "circleName": "Chattisgarh Circle",
    "regionName": "DivReportingCircle",
    "divisionName": "Bastar Division",
    "officeName": "Balikonta B.O",
    "pinCode": "494001",
    "officeType": "BO",
    "district": "RAIPUR",
    "latitude": "19.1272",
    "longitude": "82.0238"
  },
  {
    "stateName": "CHHATTISGARH",
    "circleName": "Chattisgarh Circle",
    "regionName": "DivReportingCircle",
    "divisionName": "Bastar Division",
    "officeName": "Bajawand B.O",
    "pinCode": "494221",
    "officeType": "BO",
    "district": "RAIPUR",
    "latitude": "19.1536",
    "longitude": "82.5378"
  },
  {
    "stateName": "CHHATTISGARH",
    "circleName": "Chattisgarh Circle",
    "regionName": "DivReportingCircle",
    "divisionName": "Bastar Division",
    "officeName": "Kachnar B.O",
    "pinCode": "494221",
    "officeType": "BO",
    "district": "RAIPUR",
    "latitude": "19.1039",
    "longitude": "82.0387"
  },
  {
    "stateName": "CHHATTISGARH",
    "circleName": "Chattisgarh Circle",
    "regionName": "DivReportingCircle",
    "divisionName": "Bastar Division",
    "officeName": "Basaguda B.O",
    "pinCode": "494447",
    "officeType": "BO",
    "district": "RAIPUR",
    "latitude": "18.79",
    "longitude": "80.81"
  },
  {
    "stateName": "CHHATTISGARH",
    "circleName": "Chattisgarh Circle",
    "regionName": "DivReportingCircle",
    "divisionName": "Bastar Division",
    "officeName": "Konndapalli B.O",
    "pinCode": "494447",
    "officeType": "BO",
    "district": "RAIPUR",
    "latitude": "18.5132",
    "longitude": "80.7731"
  },
  {
    "stateName": "CHHATTISGARH",
    "circleName": "Chattisgarh Circle",
    "regionName": "DivReportingCircle",
    "divisionName": "Bastar Division",
    "officeName": "Lankapalli B.O",
    "pinCode": "494447",
    "officeType": "BO",
    "district": "RAIPUR",
    "latitude": "18.5123",
    "longitude": "80.7519"
  },
  {
    "stateName": "CHHATTISGARH",
    "circleName": "Chattisgarh Circle",
    "regionName": "DivReportingCircle",
    "divisionName": "Bastar Division",
    "officeName": "Nelakaner B.O",
    "pinCode": "494447",
    "officeType": "BO",
    "district": "RAIPUR",
    "latitude": "18.5479",
    "longitude": "80.7619"
  },
  {
    "stateName": "CHHATTISGARH",
    "circleName": "Chattisgarh Circle",
    "regionName": "DivReportingCircle",
    "divisionName": "Bastar Division",
    "officeName": "Polampalli B.O",
    "pinCode": "494447",
    "officeType": "BO",
    "district": "RAIPUR",
    "latitude": "18.5841",
    "longitude": "80.7398"
  },
  {
    "stateName": "CHHATTISGARH",
    "circleName": "Chattisgarh Circle",
    "regionName": "DivReportingCircle",
    "divisionName": "Bastar Division",
    "officeName": "TARREM B.O",
    "pinCode": "494447",
    "officeType": "BO",
    "district": "RAIPUR",
    "latitude": "18.5741",
    "longitude": "80.7746"
  },
  {
    "stateName": "CHHATTISGARH",
    "circleName": "Chattisgarh Circle",
    "regionName": "DivReportingCircle",
    "divisionName": "Bastar Division",
    "officeName": "Bache R.S. B.O",
    "pinCode": "494553",
    "officeType": "BO",
    "district": "DANTEWADA",
    "latitude": "18.7",
    "longitude": "81.23"
  },
  {
    "stateName": "CHHATTISGARH",
    "circleName": "Chattisgarh Circle",
    "regionName": "DivReportingCircle",
    "divisionName": "Bastar Division",
    "officeName": "DHURLI B.O",
    "pinCode": "494553",
    "officeType": "BO",
    "district": "DANTEWADA",
    "latitude": "18.8",
    "longitude": "81.26"
  },
  {
    "stateName": "CHHATTISGARH",
    "circleName": "Chattisgarh Circle",
    "regionName": "DivReportingCircle",
    "divisionName": "Bastar Division",
    "officeName": "Jaitgiri B.O",
    "pinCode": "494222",
    "officeType": "BO",
    "district": "RAIPUR",
    "latitude": "19.19172",
    "longitude": "82.81341"
  },
  {
    "stateName": "CHHATTISGARH",
    "circleName": "Chattisgarh Circle",
    "regionName": "DivReportingCircle",
    "divisionName": "Bastar Division",
    "officeName": "Sargipal B.O",
    "pinCode": "494222",
    "officeType": "BO",
    "district": "RAIPUR",
    "latitude": "19.15",
    "longitude": "82.65"
  },
  {
    "stateName": "CHHATTISGARH",
    "circleName": "Chattisgarh Circle",
    "regionName": "DivReportingCircle",
    "divisionName": "Bastar Division",
    "officeName": "Sawara B.O",
    "pinCode": "494222",
    "officeType": "BO",
    "district": "RAIPUR",
    "latitude": "18.9314",
    "longitude": "81.2231"
  },
  {
    "stateName": "CHHATTISGARH",
    "circleName": "Chattisgarh Circle",
    "regionName": "DivReportingCircle",
    "divisionName": "Bastar Division",
    "officeName": "Baghmohlai B.O",
    "pinCode": "494223",
    "officeType": "BO",
    "district": "RAIPUR",
    "latitude": "19.11",
    "longitude": "81.38"
  },
  {
    "stateName": "CHHATTISGARH",
    "circleName": "Chattisgarh Circle",
    "regionName": "DivReportingCircle",
    "divisionName": "Bastar Division",
    "officeName": "Bhainsgaon B.O",
    "pinCode": "494223",
    "officeType": "BO",
    "district": "RAIPUR",
    "latitude": "19.13",
    "longitude": "81.48"
  },
  {
    "stateName": "CHHATTISGARH",
    "circleName": "Chattisgarh Circle",
    "regionName": "DivReportingCircle",
    "divisionName": "Bastar Division",
    "officeName": "Chokar B.O",
    "pinCode": "494223",
    "officeType": "BO",
    "district": "RAIPUR",
    "latitude": "19.84",
    "longitude": "81.55"
  },
  {
    "stateName": "CHHATTISGARH",
    "circleName": "Chattisgarh Circle",
    "regionName": "DivReportingCircle",
    "divisionName": "Bastar Division",
    "officeName": "Retawand B.O",
    "pinCode": "494223",
    "officeType": "BO",
    "district": "RAIPUR",
    "latitude": "19.14",
    "longitude": "81.58"
  },
  {
    "stateName": "CHHATTISGARH",
    "circleName": "Chattisgarh Circle",
    "regionName": "DivReportingCircle",
    "divisionName": "Bastar Division",
    "officeName": "Rotma B.O",
    "pinCode": "494223",
    "officeType": "BO",
    "district": "RAIPUR",
    "latitude": "19.11",
    "longitude": "81.49"
  },
  {
    "stateName": "CHHATTISGARH",
    "circleName": "Chattisgarh Circle",
    "regionName": "DivReportingCircle",
    "divisionName": "Bastar Division",
    "officeName": "Badekakler B.O",
    "pinCode": "494450",
    "officeType": "BO",
    "district": "BIJAPUR",
    "latitude": "16.84",
    "longitude": "75.71"
  },
  {
    "stateName": "CHHATTISGARH",
    "circleName": "Chattisgarh Circle",
    "regionName": "DivReportingCircle",
    "divisionName": "Bastar Division",
    "officeName": "Mirtur B.O",
    "pinCode": "494450",
    "officeType": "BO",
    "district": "BIJAPUR",
    "latitude": "18.87",
    "longitude": "81.15"
  },
  {
    "stateName": "CHHATTISGARH",
    "circleName": "Chattisgarh Circle",
    "regionName": "DivReportingCircle",
    "divisionName": "Bastar Division",
    "officeName": "darbha B.O",
    "pinCode": "494450",
    "officeType": "BO",
    "district": "BIJAPUR",
    "latitude": "19.0126",
    "longitude": "81.05421"
  },
  {
    "stateName": "CHHATTISGARH",
    "circleName": "Chattisgarh Circle",
    "regionName": "DivReportingCircle",
    "divisionName": "Bastar Division",
    "officeName": "EETAMPAR B.O",
    "pinCode": "494450",
    "officeType": "BO",
    "district": "BIJAPUR",
    "latitude": "19.01423",
    "longitude": "81.0325"
  },
  {
    "stateName": "CHHATTISGARH",
    "circleName": "Chattisgarh Circle",
    "regionName": "DivReportingCircle",
    "divisionName": "Bastar Division",
    "officeName": "hallur B.O",
    "pinCode": "494450",
    "officeType": "BO",
    "district": "BIJAPUR",
    "latitude": "19.0046",
    "longitude": "81.0461"
  },
  {
    "stateName": "CHHATTISGARH",
    "circleName": "Chattisgarh Circle",
    "regionName": "DivReportingCircle",
    "divisionName": "Bastar Division",
    "officeName": "keshkutul B.O",
    "pinCode": "494450",
    "officeType": "BO",
    "district": "BIJAPUR",
    "latitude": "19.0024",
    "longitude": "81.0479"
  },
  {
    "stateName": "CHHATTISGARH",
    "circleName": "Chattisgarh Circle",
    "regionName": "DivReportingCircle",
    "divisionName": "Bastar Division",
    "officeName": "MARAMETA B.O",
    "pinCode": "494450",
    "officeType": "BO",
    "district": "BIJAPUR",
    "latitude": "19.0032",
    "longitude": "81.01464"
  },
  {
    "stateName": "CHHATTISGARH",
    "circleName": "Chattisgarh Circle",
    "regionName": "DivReportingCircle",
    "divisionName": "Bastar Division",
    "officeName": "PETHA B.O",
    "pinCode": "494450",
    "officeType": "BO",
    "district": "BIJAPUR",
    "latitude": "19.01456",
    "longitude": "81.1465"
  },
  {
    "stateName": "CHHATTISGARH",
    "circleName": "Chattisgarh Circle",
    "regionName": "DivReportingCircle",
    "divisionName": "Bastar Division",
    "officeName": "USKAPATNAM B.O",
    "pinCode": "494450",
    "officeType": "BO",
    "district": "BIJAPUR",
    "latitude": "19.0146",
    "longitude": "81.4123"
  },
  {
    "stateName": "CHHATTISGARH",
    "circleName": "Chattisgarh Circle",
    "regionName": "DivReportingCircle",
    "divisionName": "Bastar Division",
    "officeName": "Badeamabal B.O",
    "pinCode": "494224",
    "officeType": "BO",
    "district": "KONDAGAON",
    "latitude": "19.349318",
    "longitude": "81.817246"
  },
  {
    "stateName": "CHHATTISGARH",
    "circleName": "Chattisgarh Circle",
    "regionName": "DivReportingCircle",
    "divisionName": "Bastar Division",
    "officeName": "Kesarpal B.O",
    "pinCode": "494224",
    "officeType": "BO",
    "district": "KONDAGAON",
    "latitude": "19.38",
    "longitude": "81.89"
  },
  {
    "stateName": "CHHATTISGARH",
    "circleName": "Chattisgarh Circle",
    "regionName": "DivReportingCircle",
    "divisionName": "Bastar Division",
    "officeName": "Mohlai B.O",
    "pinCode": "494224",
    "officeType": "BO",
    "district": "KONDAGAON",
    "latitude": "19.27",
    "longitude": "82.1"
  },
  {
    "stateName": "CHHATTISGARH",
    "circleName": "Chattisgarh Circle",
    "regionName": "DivReportingCircle",
    "divisionName": "Bastar Division",
    "officeName": "Salemeta B.O",
    "pinCode": "494224",
    "officeType": "BO",
    "district": "KONDAGAON",
    "latitude": "19.46",
    "longitude": "81.86"
  },
  {
    "stateName": "CHHATTISGARH",
    "circleName": "Chattisgarh Circle",
    "regionName": "DivReportingCircle",
    "divisionName": "Bastar Division",
    "officeName": "Munjla B.O",
    "pinCode": "494224",
    "officeType": "BO",
    "district": "KONDAGAON",
    "latitude": "19.1645",
    "longitude": "81.902"
  },
  {
    "stateName": "CHHATTISGARH",
    "circleName": "Chattisgarh Circle",
    "regionName": "DivReportingCircle",
    "divisionName": "Bastar Division",
    "officeName": "Pakhnakongera B.O",
    "pinCode": "494224",
    "officeType": "BO",
    "district": "KONDAGAON",
    "latitude": "19.16423",
    "longitude": "81.933"
  },
  {
    "stateName": "CHHATTISGARH",
    "circleName": "Chattisgarh Circle",
    "regionName": "DivReportingCircle",
    "divisionName": "Bastar Division",
    "officeName": "Pharsara B.O",
    "pinCode": "494224",
    "officeType": "BO",
    "district": "KONDAGAON",
    "latitude": "19.1742",
    "longitude": "81.925"
  },
  {
    "stateName": "CHHATTISGARH",
    "circleName": "Chattisgarh Circle",
    "regionName": "DivReportingCircle",
    "divisionName": "Bastar Division",
    "officeName": "Rajpur B.O",
    "pinCode": "494224",
    "officeType": "BO",
    "district": "KONDAGAON",
    "latitude": "19.1324",
    "longitude": "81.937"
  },
  {
    "stateName": "CHHATTISGARH",
    "circleName": "Chattisgarh Circle",
    "regionName": "DivReportingCircle",
    "divisionName": "Bastar Division",
    "officeName": "Kawadgaon B.O",
    "pinCode": "494224",
    "officeType": "BO",
    "district": "KONDAGAON",
    "latitude": "19.3106",
    "longitude": "81.7451"
  },
  {
    "stateName": "CHHATTISGARH",
    "circleName": "Chattisgarh Circle",
    "regionName": "DivReportingCircle",
    "divisionName": "Bastar Division",
    "officeName": "Kottaguda B.O",
    "pinCode": "494446",
    "officeType": "BO",
    "district": "RAIPUR",
    "latitude": "18.82",
    "longitude": "80.34"
  },
  {
    "stateName": "CHHATTISGARH",
    "circleName": "Chattisgarh Circle",
    "regionName": "DivReportingCircle",
    "divisionName": "Bastar Division",
    "officeName": "GOLLAGUDA B.O",
    "pinCode": "494446",
    "officeType": "BO",
    "district": "RAIPUR",
    "latitude": "18.623",
    "longitude": "80.302"
  },
  {
    "stateName": "CHHATTISGARH",
    "circleName": "Chattisgarh Circle",
    "regionName": "DivReportingCircle",
    "divisionName": "Bastar Division",
    "officeName": "GOTAIGUDA B.O",
    "pinCode": "494446",
    "officeType": "BO",
    "district": "RAIPUR",
    "latitude": "18.812",
    "longitude": "80.329"
  },
  {
    "stateName": "CHHATTISGARH",
    "circleName": "Chattisgarh Circle",
    "regionName": "DivReportingCircle",
    "divisionName": "Bastar Division",
    "officeName": "Lingapur B.O",
    "pinCode": "494446",
    "officeType": "BO",
    "district": "RAIPUR",
    "latitude": "18.8921",
    "longitude": "80.3192"
  },
  {
    "stateName": "CHHATTISGARH",
    "circleName": "Chattisgarh Circle",
    "regionName": "DivReportingCircle",
    "divisionName": "Bastar Division",
    "officeName": "Dhanora B.O",
    "pinCode": "494444",
    "officeType": "BO",
    "district": "RAIPUR",
    "latitude": "18.85",
    "longitude": "80.77"
  },
  {
    "stateName": "CHHATTISGARH",
    "circleName": "Chattisgarh Circle",
    "regionName": "DivReportingCircle",
    "divisionName": "Bastar Division",
    "officeName": "Etpal B.O",
    "pinCode": "494444",
    "officeType": "BO",
    "district": "RAIPUR",
    "latitude": "18.83",
    "longitude": "80.76"
  },
  {
    "stateName": "CHHATTISGARH",
    "circleName": "Chattisgarh Circle",
    "regionName": "DivReportingCircle",
    "divisionName": "Bastar Division",
    "officeName": "Padeda B.O",
    "pinCode": "494444",
    "officeType": "BO",
    "district": "RAIPUR",
    "latitude": "18.74",
    "longitude": "80.71"
  },
  {
    "stateName": "CHHATTISGARH",
    "circleName": "Chattisgarh Circle",
    "regionName": "DivReportingCircle",
    "divisionName": "Bastar Division",
    "officeName": "Pusnar B.O",
    "pinCode": "494444",
    "officeType": "BO",
    "district": "RAIPUR",
    "latitude": "18.73",
    "longitude": "80.95"
  },
  {
    "stateName": "CHHATTISGARH",
    "circleName": "Chattisgarh Circle",
    "regionName": "DivReportingCircle",
    "divisionName": "Bastar Division",
    "officeName": "Tumnar B.O",
    "pinCode": "494444",
    "officeType": "BO",
    "district": "RAIPUR",
    "latitude": "18.81",
    "longitude": "80.83"
  },
  {
    "stateName": "CHHATTISGARH",
    "circleName": "Chattisgarh Circle",
    "regionName": "DivReportingCircle",
    "divisionName": "Bastar Division",
    "officeName": "BORJE B.O",
    "pinCode": "494444",
    "officeType": "BO",
    "district": "RAIPUR",
    "latitude": "18.791",
    "longitude": "80.816"
  },
  {
    "stateName": "CHHATTISGARH",
    "circleName": "Chattisgarh Circle",
    "regionName": "DivReportingCircle",
    "divisionName": "Bastar Division",
    "officeName": "DAUDITUMNAR B.O",
    "pinCode": "494444",
    "officeType": "BO",
    "district": "RAIPUR",
    "latitude": "18.782",
    "longitude": "80.791"
  },
  {
    "stateName": "CHHATTISGARH",
    "circleName": "Chattisgarh Circle",
    "regionName": "DivReportingCircle",
    "divisionName": "Bastar Division",
    "officeName": "GAMPUR B.O",
    "pinCode": "494444",
    "officeType": "BO",
    "district": "RAIPUR",
    "latitude": "18.689",
    "longitude": "80.811"
  },
  {
    "stateName": "CHHATTISGARH",
    "circleName": "Chattisgarh Circle",
    "regionName": "DivReportingCircle",
    "divisionName": "Bastar Division",
    "officeName": "Gongla B.O",
    "pinCode": "494444",
    "officeType": "BO",
    "district": "RAIPUR",
    "latitude": "18.7726",
    "longitude": "81.0589"
  },
  {
    "stateName": "CHHATTISGARH",
    "circleName": "Chattisgarh Circle",
    "regionName": "DivReportingCircle",
    "divisionName": "Bastar Division",
    "officeName": "Balpet B.O",
    "pinCode": "494449",
    "officeType": "BO",
    "district": "DANTEWADA",
    "latitude": "18.89",
    "longitude": "81.38"
  },
  {
    "stateName": "CHHATTISGARH",
    "circleName": "Chattisgarh Circle",
    "regionName": "DivReportingCircle",
    "divisionName": "Bastar Division",
    "officeName": "Kamaloor B.O",
    "pinCode": "494449",
    "officeType": "BO",
    "district": "DANTEWADA",
    "latitude": "18.83",
    "longitude": "81.25"
  },
  {
    "stateName": "CHHATTISGARH",
    "circleName": "Chattisgarh Circle",
    "regionName": "DivReportingCircle",
    "divisionName": "Bastar Division",
    "officeName": "Matenar B.O",
    "pinCode": "494449",
    "officeType": "BO",
    "district": "DANTEWADA",
    "latitude": "18.84",
    "longitude": "81.41"
  },
  {
    "stateName": "CHHATTISGARH",
    "circleName": "Chattisgarh Circle",
    "regionName": "DivReportingCircle",
    "divisionName": "Bastar Division",
    "officeName": "Pondoom B.O",
    "pinCode": "494449",
    "officeType": "BO",
    "district": "DANTEWADA",
    "latitude": "18.889804",
    "longitude": "81.347745"
  },
  {
    "stateName": "CHHATTISGARH",
    "circleName": "Chattisgarh Circle",
    "regionName": "DivReportingCircle",
    "divisionName": "Bastar Division",
    "officeName": "Kumharras B.O",
    "pinCode": "494449",
    "officeType": "BO",
    "district": "DANTEWADA",
    "latitude": "18.83",
    "longitude": "80.33"
  },
  {
    "stateName": "CHHATTISGARH",
    "circleName": "Chattisgarh Circle",
    "regionName": "DivReportingCircle",
    "divisionName": "Bastar Division",
    "officeName": "Tetam B.O",
    "pinCode": "494552",
    "officeType": "BO",
    "district": "DANTEWADA",
    "latitude": "18.812",
    "longitude": "81.303"
  },
  {
    "stateName": "CHHATTISGARH",
    "circleName": "Chattisgarh Circle",
    "regionName": "DivReportingCircle",
    "divisionName": "Bastar Division",
    "officeName": "CHANDENAR B.O",
    "pinCode": "494449",
    "officeType": "BO",
    "district": "DANTEWADA",
    "latitude": "18.765",
    "longitude": "81.258"
  },
  {
    "stateName": "CHHATTISGARH",
    "circleName": "Chattisgarh Circle",
    "regionName": "DivReportingCircle",
    "divisionName": "Bastar Division",
    "officeName": "Gondpalli",
    "pinCode": "494449",
    "officeType": "BO",
    "district": "DANTEWADA",
    "latitude": "18.496655",
    "longitude": "81.391951"
  },
  {
    "stateName": "CHHATTISGARH",
    "circleName": "Chattisgarh Circle",
    "regionName": "DivReportingCircle",
    "divisionName": "Bastar Division",
    "officeName": "Argatta B.O",
    "pinCode": "494122",
    "officeType": "BO",
    "district": "SUKMA",
    "latitude": "18.1",
    "longitude": "81.46"
  },
  {
    "stateName": "CHHATTISGARH",
    "circleName": "Chattisgarh Circle",
    "regionName": "DivReportingCircle",
    "divisionName": "Bastar Division",
    "officeName": "Gogunda B.O",
    "pinCode": "494122",
    "officeType": "BO",
    "district": "SUKMA",
    "latitude": "18.38",
    "longitude": "81.38"
  },
  {
    "stateName": "CHHATTISGARH",
    "circleName": "Chattisgarh Circle",
    "regionName": "DivReportingCircle",
    "divisionName": "Bastar Division",
    "officeName": "Kerlapal B.O",
    "pinCode": "494122",
    "officeType": "BO",
    "district": "SUKMA",
    "latitude": "18.3",
    "longitude": "81.56"
  },
  {
    "stateName": "CHHATTISGARH",
    "circleName": "Chattisgarh Circle",
    "regionName": "DivReportingCircle",
    "divisionName": "Bastar Division",
    "officeName": "Sirsitti B.O",
    "pinCode": "494122",
    "officeType": "BO",
    "district": "SUKMA",
    "latitude": "18.3568",
    "longitude": "81.4748"
  },
  {
    "stateName": "CHHATTISGARH",
    "circleName": "Chattisgarh Circle",
    "regionName": "DivReportingCircle",
    "divisionName": "Bastar Division",
    "officeName": "Durandarbha",
    "pinCode": "494122",
    "officeType": "BO",
    "district": "SUKMA",
    "latitude": "18.462411",
    "longitude": "81.11862"
  },
  {
    "stateName": "CHHATTISGARH",
    "circleName": "Chattisgarh Circle",
    "regionName": "DivReportingCircle",
    "divisionName": "Bastar Division",
    "officeName": "Bagmundi Panera B.O",
    "pinCode": "494441",
    "officeType": "BO",
    "district": "DANTEWADA",
    "latitude": "18.95",
    "longitude": "81.47"
  },
  {
    "stateName": "CHHATTISGARH",
    "circleName": "Chattisgarh Circle",
    "regionName": "DivReportingCircle",
    "divisionName": "Bastar Division",
    "officeName": "Chhindnar B.O",
    "pinCode": "494441",
    "officeType": "BO",
    "district": "DANTEWADA",
    "latitude": "19.08",
    "longitude": "81.29"
  },
  {
    "stateName": "CHHATTISGARH",
    "circleName": "Chattisgarh Circle",
    "regionName": "DivReportingCircle",
    "divisionName": "Bastar Division",
    "officeName": "Chhotetumnar B.O",
    "pinCode": "494441",
    "officeType": "BO",
    "district": "DANTEWADA",
    "latitude": "19.03",
    "longitude": "81.24"
  },
  {
    "stateName": "CHHATTISGARH",
    "circleName": "Chattisgarh Circle",
    "regionName": "DivReportingCircle",
    "divisionName": "Bastar Division",
    "officeName": "Gumda B.O",
    "pinCode": "494441",
    "officeType": "BO",
    "district": "DANTEWADA",
    "latitude": "18.92",
    "longitude": "81.4"
  },
  {
    "stateName": "CHHATTISGARH",
    "circleName": "Chattisgarh Circle",
    "regionName": "DivReportingCircle",
    "divisionName": "Bastar Division",
    "officeName": "Karli B.O",
    "pinCode": "494441",
    "officeType": "BO",
    "district": "DANTEWADA",
    "latitude": "81.35",
    "longitude": "18.92"
  },
  {
    "stateName": "CHHATTISGARH",
    "circleName": "Chattisgarh Circle",
    "regionName": "DivReportingCircle",
    "divisionName": "Bastar Division",
    "officeName": "Korgaon B.O",
    "pinCode": "494441",
    "officeType": "BO",
    "district": "DANTEWADA",
    "latitude": "81.7",
    "longitude": "20.05"
  },
  {
    "stateName": "CHHATTISGARH",
    "circleName": "Chattisgarh Circle",
    "regionName": "DivReportingCircle",
    "divisionName": "Bastar Division",
    "officeName": "Shivanandashram B.O",
    "pinCode": "494441",
    "officeType": "BO",
    "district": "DANTEWADA",
    "latitude": "81.38",
    "longitude": "19.14"
  },
  {
    "stateName": "CHHATTISGARH",
    "circleName": "Chattisgarh Circle",
    "regionName": "DivReportingCircle",
    "divisionName": "Bastar Division",
    "officeName": "BADESUROKHI B.O",
    "pinCode": "494441",
    "officeType": "BO",
    "district": "DANTEWADA",
    "latitude": "18.845",
    "longitude": "81.326"
  },
  {
    "stateName": "CHHATTISGARH",
    "circleName": "Chattisgarh Circle",
    "regionName": "DivReportingCircle",
    "divisionName": "Bastar Division",
    "officeName": "Jhodiyabadam B.O",
    "pinCode": "494441",
    "officeType": "BO",
    "district": "DANTEWADA",
    "latitude": "18.934",
    "longitude": "81.3221"
  },
  {
    "stateName": "CHHATTISGARH",
    "circleName": "Chattisgarh Circle",
    "regionName": "DivReportingCircle",
    "divisionName": "Bastar Division",
    "officeName": "Katulnar B.O",
    "pinCode": "494441",
    "officeType": "BO",
    "district": "DANTEWADA",
    "latitude": "19.0208",
    "longitude": "81.4776"
  },
  {
    "stateName": "CHHATTISGARH",
    "circleName": "Chattisgarh Circle",
    "regionName": "DivReportingCircle",
    "divisionName": "Bastar Division",
    "officeName": "Mohnar",
    "pinCode": "494441",
    "officeType": "BO",
    "district": "DANTEWADA",
    "latitude": "19.226101",
    "longitude": "81.256241"
  },
  {
    "stateName": "CHHATTISGARH",
    "circleName": "Chattisgarh Circle",
    "regionName": "DivReportingCircle",
    "divisionName": "Bastar Division",
    "officeName": "Irpanar",
    "pinCode": "494441",
    "officeType": "BO",
    "district": "DANTEWADA",
    "latitude": "19.464064",
    "longitude": "80.958473"
  },
  {
    "stateName": "CHHATTISGARH",
    "circleName": "Chattisgarh Circle",
    "regionName": "DivReportingCircle",
    "divisionName": "Bastar Division",
    "officeName": "Gumyapal B.O",
    "pinCode": "494556",
    "officeType": "BO",
    "district": "DANTEWADA",
    "latitude": "18.58",
    "longitude": "81.24"
  },
  {
    "stateName": "CHHATTISGARH",
    "circleName": "Chattisgarh Circle",
    "regionName": "DivReportingCircle",
    "divisionName": "Bastar Division",
    "officeName": "Guphadi B.O",
    "pinCode": "494556",
    "officeType": "BO",
    "district": "DANTEWADA",
    "latitude": "81.36",
    "longitude": "18.56"
  },
  {
    "stateName": "CHHATTISGARH",
    "circleName": "Chattisgarh Circle",
    "regionName": "DivReportingCircle",
    "divisionName": "Bastar Division",
    "officeName": "Kakadi B.O",
    "pinCode": "494556",
    "officeType": "BO",
    "district": "DANTEWADA",
    "latitude": "18.42",
    "longitude": "81.33"
  },
  {
    "stateName": "CHHATTISGARH",
    "circleName": "Chattisgarh Circle",
    "regionName": "DivReportingCircle",
    "divisionName": "Bastar Division",
    "officeName": "Potali B.O",
    "pinCode": "494556",
    "officeType": "BO",
    "district": "DANTEWADA",
    "latitude": "18.9",
    "longitude": "81.34"
  },
  {
    "stateName": "CHHATTISGARH",
    "circleName": "Chattisgarh Circle",
    "regionName": "DivReportingCircle",
    "divisionName": "Bastar Division",
    "officeName": "Hiroli",
    "pinCode": "494556",
    "officeType": "BO",
    "district": "DANTEWADA",
    "latitude": "18.592",
    "longitude": "81.245"
  },
  {
    "stateName": "CHHATTISGARH",
    "circleName": "Chattisgarh Circle",
    "regionName": "DivReportingCircle",
    "divisionName": "Bastar Division",
    "officeName": "Kurtem",
    "pinCode": "494556",
    "officeType": "BO",
    "district": "DANTEWADA",
    "latitude": "18.625",
    "longitude": "81.324"
  },
  {
    "stateName": "CHHATTISGARH",
    "circleName": "Chattisgarh Circle",
    "regionName": "DivReportingCircle",
    "divisionName": "Bastar Division",
    "officeName": "Nahadi",
    "pinCode": "494556",
    "officeType": "BO",
    "district": "DANTEWADA",
    "latitude": "18.633",
    "longitude": "81.243"
  },
  {
    "stateName": "CHHATTISGARH",
    "circleName": "Chattisgarh Circle",
    "regionName": "DivReportingCircle",
    "divisionName": "Bastar Division",
    "officeName": "Purangel",
    "pinCode": "494556",
    "officeType": "BO",
    "district": "DANTEWADA",
    "latitude": "18.579369",
    "longitude": "81.166481"
  },
  {
    "stateName": "CHHATTISGARH",
    "circleName": "Chattisgarh Circle",
    "regionName": "DivReportingCircle",
    "divisionName": "Bastar Division",
    "officeName": "Banda B.O",
    "pinCode": "494114",
    "officeType": "BO",
    "district": "RAIPUR",
    "latitude": "17.83989",
    "longitude": "81.31397"
  },
  {
    "stateName": "CHHATTISGARH",
    "circleName": "Chattisgarh Circle",
    "regionName": "DivReportingCircle",
    "divisionName": "Bastar Division",
    "officeName": "Mehta B.O",
    "pinCode": "494114",
    "officeType": "BO",
    "district": "RAIPUR",
    "latitude": "17.88684",
    "longitude": "81.16818"
  },
  {
    "stateName": "CHHATTISGARH",
    "circleName": "Chattisgarh Circle",
    "regionName": "DivReportingCircle",
    "divisionName": "Bastar Division",
    "officeName": "Burklanka B.O",
    "pinCode": "494114",
    "officeType": "BO",
    "district": "RAIPUR",
    "latitude": "18.01",
    "longitude": "81.21"
  },
  {
    "stateName": "CHHATTISGARH",
    "circleName": "Chattisgarh Circle",
    "regionName": "DivReportingCircle",
    "divisionName": "Bastar Division",
    "officeName": "Badanji B.O",
    "pinCode": "494010",
    "officeType": "BO",
    "district": "RAIPUR",
    "latitude": "19.92421",
    "longitude": "81.48217"
  },
  {
    "stateName": "CHHATTISGARH",
    "circleName": "Chattisgarh Circle",
    "regionName": "DivReportingCircle",
    "divisionName": "Bastar Division",
    "officeName": "Belar B.O",
    "pinCode": "494010",
    "officeType": "BO",
    "district": "RAIPUR",
    "latitude": "19.82",
    "longitude": "81.47"
  },
  {
    "stateName": "CHHATTISGARH",
    "circleName": "Chattisgarh Circle",
    "regionName": "DivReportingCircle",
    "divisionName": "Bastar Division",
    "officeName": "Kaknar B.O",
    "pinCode": "494010",
    "officeType": "BO",
    "district": "RAIPUR",
    "latitude": "19.15631",
    "longitude": "81.3563"
  },
  {
    "stateName": "CHHATTISGARH",
    "circleName": "Chattisgarh Circle",
    "regionName": "DivReportingCircle",
    "divisionName": "Bastar Division",
    "officeName": "Mardum B.O",
    "pinCode": "494010",
    "officeType": "BO",
    "district": "RAIPUR",
    "latitude": "19.95411",
    "longitude": "81.35456"
  },
  {
    "stateName": "CHHATTISGARH",
    "circleName": "Chattisgarh Circle",
    "regionName": "DivReportingCircle",
    "divisionName": "Bastar Division",
    "officeName": "Parapur B.O",
    "pinCode": "494010",
    "officeType": "BO",
    "district": "RAIPUR",
    "latitude": "19.8132",
    "longitude": "81.4148"
  },
  {
    "stateName": "CHHATTISGARH",
    "circleName": "Chattisgarh Circle",
    "regionName": "DivReportingCircle",
    "divisionName": "Bastar Division",
    "officeName": "Chandanpur B.O",
    "pinCode": "494010",
    "officeType": "BO",
    "district": "RAIPUR",
    "latitude": "19.1325",
    "longitude": "81.741"
  },
  {
    "stateName": "CHHATTISGARH",
    "circleName": "Chattisgarh Circle",
    "regionName": "DivReportingCircle",
    "divisionName": "Bastar Division",
    "officeName": "Kasturpal B.O",
    "pinCode": "494010",
    "officeType": "BO",
    "district": "RAIPUR",
    "latitude": "19.1357",
    "longitude": "81.6272"
  },
  {
    "stateName": "CHHATTISGARH",
    "circleName": "Chattisgarh Circle",
    "regionName": "DivReportingCircle",
    "divisionName": "Bastar Division",
    "officeName": "Dudheda (Kottaguda) B.O",
    "pinCode": "494448",
    "officeType": "BO",
    "district": "RAIPUR",
    "latitude": "18.82",
    "longitude": "80.43"
  },
  {
    "stateName": "CHHATTISGARH",
    "circleName": "Chattisgarh Circle",
    "regionName": "DivReportingCircle",
    "divisionName": "Bastar Division",
    "officeName": "Pamgal B.O",
    "pinCode": "494448",
    "officeType": "BO",
    "district": "RAIPUR",
    "latitude": "18.69",
    "longitude": "80.45"
  },
  {
    "stateName": "CHHATTISGARH",
    "circleName": "Chattisgarh Circle",
    "regionName": "DivReportingCircle",
    "divisionName": "Bastar Division",
    "officeName": "Sankanpalli B.O",
    "pinCode": "494448",
    "officeType": "BO",
    "district": "RAIPUR",
    "latitude": "18.67",
    "longitude": "80.48"
  },
  {
    "stateName": "CHHATTISGARH",
    "circleName": "Chattisgarh Circle",
    "regionName": "DivReportingCircle",
    "divisionName": "Bastar Division",
    "officeName": "CHERAKDODI",
    "pinCode": "494448",
    "officeType": "BO",
    "district": "RAIPUR",
    "latitude": "18.645",
    "longitude": "80.524"
  },
  {
    "stateName": "CHHATTISGARH",
    "circleName": "Chattisgarh Circle",
    "regionName": "DivReportingCircle",
    "divisionName": "Bastar Division",
    "officeName": "Badegudra B.O",
    "pinCode": "494552",
    "officeType": "BO",
    "district": "DANTEWADA",
    "latitude": "18.68",
    "longitude": "81.47"
  },
  {
    "stateName": "CHHATTISGARH",
    "circleName": "Chattisgarh Circle",
    "regionName": "DivReportingCircle",
    "divisionName": "Bastar Division",
    "officeName": "Mailawada B.O",
    "pinCode": "494552",
    "officeType": "BO",
    "district": "DANTEWADA",
    "latitude": "18.69",
    "longitude": "81.48"
  },
  {
    "stateName": "CHHATTISGARH",
    "circleName": "Chattisgarh Circle",
    "regionName": "DivReportingCircle",
    "divisionName": "Bastar Division",
    "officeName": "Gongpal",
    "pinCode": "494552",
    "officeType": "BO",
    "district": "DANTEWADA",
    "latitude": "18.895",
    "longitude": "81.302"
  },
  {
    "stateName": "CHHATTISGARH",
    "circleName": "Chattisgarh Circle",
    "regionName": "DivReportingCircle",
    "divisionName": "Bastar Division",
    "officeName": "Ramaram B.O",
    "pinCode": "494111",
    "officeType": "BO",
    "district": "RAIPUR",
    "latitude": "18.3126",
    "longitude": "81.6201"
  },
  {
    "stateName": "CHHATTISGARH",
    "circleName": "Chattisgarh Circle",
    "regionName": "DivReportingCircle",
    "divisionName": "Bastar Division",
    "officeName": "Sonakuknar B.O",
    "pinCode": "494111",
    "officeType": "BO",
    "district": "RAIPUR",
    "latitude": "18.5326",
    "longitude": "81.5926"
  },
  {
    "stateName": "CHHATTISGARH",
    "circleName": "Chattisgarh Circle",
    "regionName": "DivReportingCircle",
    "divisionName": "Bastar Division",
    "officeName": "Ganjenar B.O",
    "pinCode": "494111",
    "officeType": "BO",
    "district": "RAIPUR",
    "latitude": "18.391",
    "longitude": "81.659"
  },
  {
    "stateName": "CHHATTISGARH",
    "circleName": "Chattisgarh Circle",
    "regionName": "DivReportingCircle",
    "divisionName": "Bastar Division",
    "officeName": "Bastanar B.O",
    "pinCode": "494442",
    "officeType": "BO",
    "district": "BASTAR",
    "latitude": "18.95",
    "longitude": "81.51"
  },
  {
    "stateName": "CHHATTISGARH",
    "circleName": "Chattisgarh Circle",
    "regionName": "DivReportingCircle",
    "divisionName": "Bastar Division",
    "officeName": "Kodenar B.O",
    "pinCode": "494442",
    "officeType": "BO",
    "district": "BASTAR",
    "latitude": "18.96425",
    "longitude": "81.65829"
  },
  {
    "stateName": "CHHATTISGARH",
    "circleName": "Chattisgarh Circle",
    "regionName": "DivReportingCircle",
    "divisionName": "Bastar Division",
    "officeName": "Kalepal B.O",
    "pinCode": "494442",
    "officeType": "BO",
    "district": "BASTAR",
    "latitude": "20.093525",
    "longitude": "81.1574579"
  },
  {
    "stateName": "CHHATTISGARH",
    "circleName": "Chattisgarh Circle",
    "regionName": "DivReportingCircle",
    "divisionName": "Bastar Division",
    "officeName": "Keshapur B.O",
    "pinCode": "494442",
    "officeType": "BO",
    "district": "BASTAR",
    "latitude": "19.0191",
    "longitude": "81.862"
  },
  {
    "stateName": "CHHATTISGARH",
    "circleName": "Chattisgarh Circle",
    "regionName": "DivReportingCircle",
    "divisionName": "Bastar Division",
    "officeName": "Badekadma B.O",
    "pinCode": "494442",
    "officeType": "BO",
    "district": "BASTAR",
    "latitude": "19.0189",
    "longitude": "81.802"
  },
  {
    "stateName": "CHHATTISGARH",
    "circleName": "Chattisgarh Circle",
    "regionName": "DivReportingCircle",
    "divisionName": "Bastar Division",
    "officeName": "BIRGALI B.O",
    "pinCode": "494442",
    "officeType": "BO",
    "district": "BASTAR",
    "latitude": "19.0183",
    "longitude": "81.849"
  },
  {
    "stateName": "CHHATTISGARH",
    "circleName": "Chattisgarh Circle",
    "regionName": "DivReportingCircle",
    "divisionName": "Bastar Division",
    "officeName": "Chhotegudra B.O",
    "pinCode": "494442",
    "officeType": "BO",
    "district": "BASTAR",
    "latitude": "19.0176",
    "longitude": "81.858"
  },
  {
    "stateName": "CHHATTISGARH",
    "circleName": "Chattisgarh Circle",
    "regionName": "DivReportingCircle",
    "divisionName": "Bastar Division",
    "officeName": "Nainnar B.O",
    "pinCode": "494442",
    "officeType": "BO",
    "district": "BASTAR",
    "latitude": "19.0182",
    "longitude": "81.798"
  },
  {
    "stateName": "CHHATTISGARH",
    "circleName": "Chattisgarh Circle",
    "regionName": "DivReportingCircle",
    "divisionName": "Bastar Division",
    "officeName": "Badegadam B.O",
    "pinCode": "494115",
    "officeType": "BO",
    "district": "RAIPUR",
    "latitude": "18.71257",
    "longitude": "81.66445"
  },
  {
    "stateName": "CHHATTISGARH",
    "circleName": "Chattisgarh Circle",
    "regionName": "DivReportingCircle",
    "divisionName": "Bastar Division",
    "officeName": "Chandangiri B.O",
    "pinCode": "494115",
    "officeType": "BO",
    "district": "RAIPUR",
    "latitude": "20.093",
    "longitude": "81.157"
  },
  {
    "stateName": "CHHATTISGARH",
    "circleName": "Chattisgarh Circle",
    "regionName": "DivReportingCircle",
    "divisionName": "Bastar Division",
    "officeName": "Gorli B.O",
    "pinCode": "494115",
    "officeType": "BO",
    "district": "RAIPUR",
    "latitude": "18.59805",
    "longitude": "81.59445"
  },
  {
    "stateName": "CHHATTISGARH",
    "circleName": "Chattisgarh Circle",
    "regionName": "DivReportingCircle",
    "divisionName": "Bastar Division",
    "officeName": "Idjepal B.O",
    "pinCode": "494115",
    "officeType": "BO",
    "district": "RAIPUR",
    "latitude": "18.6417",
    "longitude": "81.8165"
  },
  {
    "stateName": "CHHATTISGARH",
    "circleName": "Chattisgarh Circle",
    "regionName": "DivReportingCircle",
    "divisionName": "Bastar Division",
    "officeName": "Kokawada B.O",
    "pinCode": "494115",
    "officeType": "BO",
    "district": "RAIPUR",
    "latitude": "18.66381",
    "longitude": "81.8826"
  },
  {
    "stateName": "CHHATTISGARH",
    "circleName": "Chattisgarh Circle",
    "regionName": "DivReportingCircle",
    "divisionName": "Bastar Division",
    "officeName": "Puspal B.O",
    "pinCode": "494001",
    "officeType": "BO",
    "district": "RAIPUR",
    "latitude": "19.21",
    "longitude": "81.41"
  },
  {
    "stateName": "CHHATTISGARH",
    "circleName": "Chattisgarh Circle",
    "regionName": "DivReportingCircle",
    "divisionName": "Bastar Division",
    "officeName": "Bispur B.O",
    "pinCode": "494115",
    "officeType": "BO",
    "district": "RAIPUR",
    "latitude": "18.667",
    "longitude": "81.672"
  },
  {
    "stateName": "CHHATTISGARH",
    "circleName": "Chattisgarh Circle",
    "regionName": "DivReportingCircle",
    "divisionName": "Bastar Division",
    "officeName": "Bokdaodar B.O",
    "pinCode": "494115",
    "officeType": "BO",
    "district": "RAIPUR",
    "latitude": "18.649",
    "longitude": "81.663"
  },
  {
    "stateName": "CHHATTISGARH",
    "circleName": "Chattisgarh Circle",
    "regionName": "DivReportingCircle",
    "divisionName": "Bastar Division",
    "officeName": "Kankapal B.O",
    "pinCode": "494115",
    "officeType": "BO",
    "district": "RAIPUR",
    "latitude": "18.659",
    "longitude": "81.662"
  },
  {
    "stateName": "CHHATTISGARH",
    "circleName": "Chattisgarh Circle",
    "regionName": "DivReportingCircle",
    "divisionName": "Bastar Division",
    "officeName": "Pusgunna B.O",
    "pinCode": "494115",
    "officeType": "BO",
    "district": "RAIPUR",
    "latitude": "18.7028",
    "longitude": "81.6763"
  },
  {
    "stateName": "CHHATTISGARH",
    "circleName": "Chattisgarh Circle",
    "regionName": "DivReportingCircle",
    "divisionName": "Bastar Division",
    "officeName": "Chiprel B.O",
    "pinCode": "494334",
    "officeType": "BO",
    "district": "RAIPUR",
    "latitude": "20.15",
    "longitude": "81.61"
  },
  {
    "stateName": "CHHATTISGARH",
    "circleName": "Chattisgarh Circle",
    "regionName": "DivReportingCircle",
    "divisionName": "Bastar Division",
    "officeName": "Hatkongera B.O",
    "pinCode": "494334",
    "officeType": "BO",
    "district": "RAIPUR",
    "latitude": "20.32",
    "longitude": "81.51"
  },
  {
    "stateName": "CHHATTISGARH",
    "circleName": "Chattisgarh Circle",
    "regionName": "DivReportingCircle",
    "divisionName": "Bastar Division",
    "officeName": "Makdisingrai B.O",
    "pinCode": "494334",
    "officeType": "BO",
    "district": "RAIPUR",
    "latitude": "20.3164",
    "longitude": "81.48"
  },
  {
    "stateName": "CHHATTISGARH",
    "circleName": "Chattisgarh Circle",
    "regionName": "DivReportingCircle",
    "divisionName": "Bastar Division",
    "officeName": "Ichchhapur B.O",
    "pinCode": "494334",
    "officeType": "BO",
    "district": "RAIPUR",
    "latitude": "20.203",
    "longitude": "81.5075"
  },
  {
    "stateName": "CHHATTISGARH",
    "circleName": "Chattisgarh Circle",
    "regionName": "DivReportingCircle",
    "divisionName": "Bastar Division",
    "officeName": "Bondanar B.O",
    "pinCode": "494665",
    "officeType": "BO",
    "district": "KANKER",
    "latitude": "20.0102",
    "longitude": "81.15"
  },
  {
    "stateName": "CHHATTISGARH",
    "circleName": "Chattisgarh Circle",
    "regionName": "DivReportingCircle",
    "divisionName": "Bastar Division",
    "officeName": "Panidober B.O",
    "pinCode": "494665",
    "officeType": "BO",
    "district": "KANKER",
    "latitude": "19.93",
    "longitude": "81.05"
  },
  {
    "stateName": "CHHATTISGARH",
    "circleName": "Chattisgarh Circle",
    "regionName": "DivReportingCircle",
    "divisionName": "Bastar Division",
    "officeName": "Tadoki B.O",
    "pinCode": "494665",
    "officeType": "BO",
    "district": "KANKER",
    "latitude": "19.95",
    "longitude": "81.15"
  },
  {
    "stateName": "CHHATTISGARH",
    "circleName": "Chattisgarh Circle",
    "regionName": "DivReportingCircle",
    "divisionName": "Bastar Division",
    "officeName": "Alparas BO",
    "pinCode": "494665",
    "officeType": "BO",
    "district": "KANKER",
    "latitude": "20.0519",
    "longitude": "80.74392"
  },
  {
    "stateName": "CHHATTISGARH",
    "circleName": "Chattisgarh Circle",
    "regionName": "DivReportingCircle",
    "divisionName": "Bastar Division",
    "officeName": "Jethegaon BO",
    "pinCode": "494665",
    "officeType": "BO",
    "district": "KANKER",
    "latitude": "20.1555",
    "longitude": "80.01545"
  },
  {
    "stateName": "CHHATTISGARH",
    "circleName": "Chattisgarh Circle",
    "regionName": "DivReportingCircle",
    "divisionName": "Bastar Division",
    "officeName": "Kamtera BO",
    "pinCode": "494665",
    "officeType": "BO",
    "district": "KANKER",
    "latitude": "20.0489",
    "longitude": "80.15454"
  },
  {
    "stateName": "CHHATTISGARH",
    "circleName": "Chattisgarh Circle",
    "regionName": "DivReportingCircle",
    "divisionName": "Bastar Division",
    "officeName": "Masbaras BO",
    "pinCode": "494665",
    "officeType": "BO",
    "district": "KANKER",
    "latitude": "20.1482",
    "longitude": "80.26445"
  },
  {
    "stateName": "CHHATTISGARH",
    "circleName": "Chattisgarh Circle",
    "regionName": "DivReportingCircle",
    "divisionName": "Bastar Division",
    "officeName": "Temrupani BO",
    "pinCode": "494665",
    "officeType": "BO",
    "district": "KANKER",
    "latitude": "20.4857",
    "longitude": "80.31545"
  },
  {
    "stateName": "CHHATTISGARH",
    "circleName": "Chattisgarh Circle",
    "regionName": "DivReportingCircle",
    "divisionName": "Bastar Division",
    "officeName": "Erpanar B.O",
    "pinCode": "494777",
    "officeType": "BO",
    "district": "KANKER",
    "latitude": "19.8",
    "longitude": "80.44"
  },
  {
    "stateName": "CHHATTISGARH",
    "circleName": "Chattisgarh Circle",
    "regionName": "DivReportingCircle",
    "divisionName": "Bastar Division",
    "officeName": "Nagaldand B.O",
    "pinCode": "494777",
    "officeType": "BO",
    "district": "KANKER",
    "latitude": "19.88",
    "longitude": "80.6"
  },
  {
    "stateName": "CHHATTISGARH",
    "circleName": "Chattisgarh Circle",
    "regionName": "DivReportingCircle",
    "divisionName": "Bastar Division",
    "officeName": "Shankar Nagar BO",
    "pinCode": "494777",
    "officeType": "BO",
    "district": "KANKER",
    "latitude": "19.2548",
    "longitude": "81.0545"
  },
  {
    "stateName": "CHHATTISGARH",
    "circleName": "Chattisgarh Circle",
    "regionName": "DivReportingCircle",
    "divisionName": "Bastar Division",
    "officeName": "Vikaspalli BO",
    "pinCode": "494777",
    "officeType": "BO",
    "district": "KANKER",
    "latitude": "19.0524",
    "longitude": "18.548"
  },
  {
    "stateName": "CHHATTISGARH",
    "circleName": "Chattisgarh Circle",
    "regionName": "DivReportingCircle",
    "divisionName": "Bastar Division",
    "officeName": "Tadbayali B.O",
    "pinCode": "494777",
    "officeType": "BO",
    "district": "KANKER",
    "latitude": "19.76",
    "longitude": "80.66"
  },
  {
    "stateName": "CHHATTISGARH",
    "circleName": "Chattisgarh Circle",
    "regionName": "DivReportingCircle",
    "divisionName": "Bastar Division",
    "officeName": "Asulkhar B.O",
    "pinCode": "494669",
    "officeType": "BO",
    "district": "KANKER",
    "latitude": "20.2",
    "longitude": "81.11"
  },
  {
    "stateName": "CHHATTISGARH",
    "circleName": "Chattisgarh Circle",
    "regionName": "DivReportingCircle",
    "divisionName": "Bastar Division",
    "officeName": "Bhandardigi BO",
    "pinCode": "494669",
    "officeType": "BO",
    "district": "KANKER",
    "latitude": "19.1211",
    "longitude": "81.15453"
  },
  {
    "stateName": "CHHATTISGARH",
    "circleName": "Chattisgarh Circle",
    "regionName": "DivReportingCircle",
    "divisionName": "Bastar Division",
    "officeName": "Chougel BO",
    "pinCode": "494669",
    "officeType": "BO",
    "district": "KANKER",
    "latitude": "19.1811",
    "longitude": "81.19912"
  },
  {
    "stateName": "CHHATTISGARH",
    "circleName": "Chattisgarh Circle",
    "regionName": "DivReportingCircle",
    "divisionName": "Bastar Division",
    "officeName": "Karramad BO",
    "pinCode": "494669",
    "officeType": "BO",
    "district": "KANKER",
    "latitude": "19.5423",
    "longitude": "81.02548"
  },
  {
    "stateName": "CHHATTISGARH",
    "circleName": "Chattisgarh Circle",
    "regionName": "DivReportingCircle",
    "divisionName": "Bastar Division",
    "officeName": "Dodkaenhur",
    "pinCode": "494669",
    "officeType": "BO",
    "district": "KANKER",
    "latitude": "20.136512",
    "longitude": "80.900189"
  },
  {
    "stateName": "CHHATTISGARH",
    "circleName": "Chattisgarh Circle",
    "regionName": "DivReportingCircle",
    "divisionName": "Bastar Division",
    "officeName": "Koliyari B.O",
    "pinCode": "494337",
    "officeType": "BO",
    "district": "RAIPUR",
    "latitude": "19.3",
    "longitude": "81.9344"
  },
  {
    "stateName": "CHHATTISGARH",
    "circleName": "Chattisgarh Circle",
    "regionName": "DivReportingCircle",
    "divisionName": "Bastar Division",
    "officeName": "Hamatwahi BO",
    "pinCode": "494771",
    "officeType": "BO",
    "district": "KANKER",
    "latitude": "20.1554",
    "longitude": "80.1545"
  },
  {
    "stateName": "CHHATTISGARH",
    "circleName": "Chattisgarh Circle",
    "regionName": "DivReportingCircle",
    "divisionName": "Bastar Division",
    "officeName": "Irakbutta BO",
    "pinCode": "494771",
    "officeType": "BO",
    "district": "KANKER",
    "latitude": "20.1549",
    "longitude": "80.1545"
  },
  {
    "stateName": "CHHATTISGARH",
    "circleName": "Chattisgarh Circle",
    "regionName": "DivReportingCircle",
    "divisionName": "Bastar Division",
    "officeName": "Pachangi BO",
    "pinCode": "494771",
    "officeType": "BO",
    "district": "KANKER",
    "latitude": "20.1545",
    "longitude": "80.1545"
  },
  {
    "stateName": "CHHATTISGARH",
    "circleName": "Chattisgarh Circle",
    "regionName": "DivReportingCircle",
    "divisionName": "Bastar Division",
    "officeName": "Batrali B.O",
    "pinCode": "494331",
    "officeType": "BO",
    "district": "RAIPUR",
    "latitude": "20.0659",
    "longitude": "81.5814"
  },
  {
    "stateName": "CHHATTISGARH",
    "circleName": "Chattisgarh Circle",
    "regionName": "DivReportingCircle",
    "divisionName": "Bastar Division",
    "officeName": "Baniyagaon B.O",
    "pinCode": "494226",
    "officeType": "BO",
    "district": "KONDAGAON",
    "latitude": "NA",
    "longitude": "NA"
  },
  {
    "stateName": "CHHATTISGARH",
    "circleName": "Chattisgarh Circle",
    "regionName": "DivReportingCircle",
    "divisionName": "Bastar Division",
    "officeName": "Dahikonga B.O",
    "pinCode": "494226",
    "officeType": "BO",
    "district": "KONDAGAON",
    "latitude": "NA",
    "longitude": "NA"
  },
  {
    "stateName": "CHHATTISGARH",
    "circleName": "Chattisgarh Circle",
    "regionName": "DivReportingCircle",
    "divisionName": "Bastar Division",
    "officeName": "Girola B.O",
    "pinCode": "494226",
    "officeType": "BO",
    "district": "KONDAGAON",
    "latitude": "NA",
    "longitude": "NA"
  },
  {
    "stateName": "CHHATTISGARH",
    "circleName": "Chattisgarh Circle",
    "regionName": "DivReportingCircle",
    "divisionName": "Bastar Division",
    "officeName": "Joba B.O",
    "pinCode": "494226",
    "officeType": "BO",
    "district": "KONDAGAON",
    "latitude": "NA",
    "longitude": "NA"
  },
  {
    "stateName": "CHHATTISGARH",
    "circleName": "Chattisgarh Circle",
    "regionName": "DivReportingCircle",
    "divisionName": "Bastar Division",
    "officeName": "Kokodi B.O",
    "pinCode": "494226",
    "officeType": "BO",
    "district": "KONDAGAON",
    "latitude": "NA",
    "longitude": "NA"
  },
  {
    "stateName": "CHHATTISGARH",
    "circleName": "Chattisgarh Circle",
    "regionName": "DivReportingCircle",
    "divisionName": "Bastar Division",
    "officeName": "Borgaon BO",
    "pinCode": "494226",
    "officeType": "BO",
    "district": "KONDAGAON",
    "latitude": "NA",
    "longitude": "NA"
  },
  {
    "stateName": "CHHATTISGARH",
    "circleName": "Chattisgarh Circle",
    "regionName": "DivReportingCircle",
    "divisionName": "Bastar Division",
    "officeName": "Chawdang BO",
    "pinCode": "494226",
    "officeType": "BO",
    "district": "KONDAGAON",
    "latitude": "NA",
    "longitude": "NA"
  },
  {
    "stateName": "CHHATTISGARH",
    "circleName": "Chattisgarh Circle",
    "regionName": "DivReportingCircle",
    "divisionName": "Bastar Division",
    "officeName": "Hadeli BO",
    "pinCode": "494220",
    "officeType": "BO",
    "district": "KONDAGAON",
    "latitude": "20.555",
    "longitude": "81.0154"
  },
  {
    "stateName": "CHHATTISGARH",
    "circleName": "Chattisgarh Circle",
    "regionName": "DivReportingCircle",
    "divisionName": "Bastar Division",
    "officeName": "Hangwa BO",
    "pinCode": "494220",
    "officeType": "BO",
    "district": "KONDAGAON",
    "latitude": "20.322",
    "longitude": "81.1545"
  },
  {
    "stateName": "CHHATTISGARH",
    "circleName": "Chattisgarh Circle",
    "regionName": "DivReportingCircle",
    "divisionName": "Bastar Division",
    "officeName": "Nilji BO",
    "pinCode": "494226",
    "officeType": "BO",
    "district": "KONDAGAON",
    "latitude": "NA",
    "longitude": "NA"
  },
  {
    "stateName": "CHHATTISGARH",
    "circleName": "Chattisgarh Circle",
    "regionName": "DivReportingCircle",
    "divisionName": "Bastar Division",
    "officeName": "Polang BO",
    "pinCode": "494220",
    "officeType": "BO",
    "district": "KONDAGAON",
    "latitude": "20.254",
    "longitude": "81.254"
  },
  {
    "stateName": "CHHATTISGARH",
    "circleName": "Chattisgarh Circle",
    "regionName": "DivReportingCircle",
    "divisionName": "Bastar Division",
    "officeName": "Temrugaon BO",
    "pinCode": "494226",
    "officeType": "BO",
    "district": "KONDAGAON",
    "latitude": "NA",
    "longitude": "NA"
  },
  {
    "stateName": "CHHATTISGARH",
    "circleName": "Chattisgarh Circle",
    "regionName": "DivReportingCircle",
    "divisionName": "Bastar Division",
    "officeName": "Markatola B.O",
    "pinCode": "494670",
    "officeType": "BO",
    "district": "RAIPUR",
    "latitude": "20.3",
    "longitude": "81.35"
  },
  {
    "stateName": "CHHATTISGARH",
    "circleName": "Chattisgarh Circle",
    "regionName": "DivReportingCircle",
    "divisionName": "Bastar Division",
    "officeName": "Kantagaon B.O",
    "pinCode": "494670",
    "officeType": "BO",
    "district": "RAIPUR",
    "latitude": "20.3758",
    "longitude": "81.2893"
  },
  {
    "stateName": "CHHATTISGARH",
    "circleName": "Chattisgarh Circle",
    "regionName": "DivReportingCircle",
    "divisionName": "Bastar Division",
    "officeName": "Bheja B.O",
    "pinCode": "494670",
    "officeType": "BO",
    "district": "RAIPUR",
    "latitude": "20.2659",
    "longitude": "81.1812"
  },
  {
    "stateName": "CHHATTISGARH",
    "circleName": "Chattisgarh Circle",
    "regionName": "DivReportingCircle",
    "divisionName": "Bastar Division",
    "officeName": "Mungwal B.O",
    "pinCode": "494670",
    "officeType": "BO",
    "district": "RAIPUR",
    "latitude": "20.2927",
    "longitude": "81.1827"
  },
  {
    "stateName": "CHHATTISGARH",
    "circleName": "Chattisgarh Circle",
    "regionName": "DivReportingCircle",
    "divisionName": "Bastar Division",
    "officeName": "Khairkeda B.O",
    "pinCode": "494336",
    "officeType": "BO",
    "district": "RAIPUR",
    "latitude": "20.41",
    "longitude": "81.39"
  },
  {
    "stateName": "CHHATTISGARH",
    "circleName": "Chattisgarh Circle",
    "regionName": "DivReportingCircle",
    "divisionName": "Bastar Division",
    "officeName": "Khartha B.O",
    "pinCode": "494336",
    "officeType": "BO",
    "district": "RAIPUR",
    "latitude": "20.45621",
    "longitude": "81.42448"
  },
  {
    "stateName": "CHHATTISGARH",
    "circleName": "Chattisgarh Circle",
    "regionName": "DivReportingCircle",
    "divisionName": "Bastar Division",
    "officeName": "Udkuda B.O",
    "pinCode": "494336",
    "officeType": "BO",
    "district": "RAIPUR",
    "latitude": "0",
    "longitude": "0"
  },
  {
    "stateName": "CHHATTISGARH",
    "circleName": "Chattisgarh Circle",
    "regionName": "DivReportingCircle",
    "divisionName": "Bastar Division",
    "officeName": "Dandwan B.O",
    "pinCode": "494661",
    "officeType": "BO",
    "district": "NARAYANPUR",
    "latitude": "NA",
    "longitude": "NA"
  },
  {
    "stateName": "CHHATTISGARH",
    "circleName": "Chattisgarh Circle",
    "regionName": "DivReportingCircle",
    "divisionName": "Bastar Division",
    "officeName": "Badejhamri",
    "pinCode": "494661",
    "officeType": "BO",
    "district": "NARAYANPUR",
    "latitude": "NA",
    "longitude": "NA"
  },
  {
    "stateName": "CHHATTISGARH",
    "circleName": "Chattisgarh Circle",
    "regionName": "DivReportingCircle",
    "divisionName": "Bastar Division",
    "officeName": "Bagbeda",
    "pinCode": "494228",
    "officeType": "BO",
    "district": "NARAYANPUR",
    "latitude": "19.43159",
    "longitude": "81.02954"
  },
  {
    "stateName": "CHHATTISGARH",
    "circleName": "Chattisgarh Circle",
    "regionName": "DivReportingCircle",
    "divisionName": "Bastar Division",
    "officeName": "Kasturmeta",
    "pinCode": "494661",
    "officeType": "BO",
    "district": "NARAYANPUR",
    "latitude": "NA",
    "longitude": "NA"
  },
  {
    "stateName": "CHHATTISGARH",
    "circleName": "Chattisgarh Circle",
    "regionName": "DivReportingCircle",
    "divisionName": "Bastar Division",
    "officeName": "Kukdajhor",
    "pinCode": "494661",
    "officeType": "BO",
    "district": "NARAYANPUR",
    "latitude": "NA",
    "longitude": "NA"
  },
  {
    "stateName": "CHHATTISGARH",
    "circleName": "Chattisgarh Circle",
    "regionName": "DivReportingCircle",
    "divisionName": "Bastar Division",
    "officeName": "Mahimagawadi",
    "pinCode": "494662",
    "officeType": "BO",
    "district": "NARAYANPUR",
    "latitude": "19.4438",
    "longitude": "81.0684"
  },
  {
    "stateName": "CHHATTISGARH",
    "circleName": "Chattisgarh Circle",
    "regionName": "DivReportingCircle",
    "divisionName": "Bastar Division",
    "officeName": "Murnar",
    "pinCode": "494661",
    "officeType": "BO",
    "district": "NARAYANPUR",
    "latitude": "NA",
    "longitude": "NA"
  },
  {
    "stateName": "CHHATTISGARH",
    "circleName": "Chattisgarh Circle",
    "regionName": "DivReportingCircle",
    "divisionName": "Bastar Division",
    "officeName": "Timnar",
    "pinCode": "494661",
    "officeType": "BO",
    "district": "NARAYANPUR",
    "latitude": "NA",
    "longitude": "NA"
  },
  {
    "stateName": "CHHATTISGARH",
    "circleName": "Chattisgarh Circle",
    "regionName": "DivReportingCircle",
    "divisionName": "Bastar Division",
    "officeName": "Toyameta",
    "pinCode": "494662",
    "officeType": "BO",
    "district": "NARAYANPUR",
    "latitude": "19.407206",
    "longitude": "80.82444"
  },
  {
    "stateName": "CHHATTISGARH",
    "circleName": "Chattisgarh Circle",
    "regionName": "DivReportingCircle",
    "divisionName": "Raipur Division",
    "officeName": "Konari BO",
    "pinCode": "493228",
    "officeType": "BO",
    "district": "BALODA BAZAR",
    "latitude": "21.5",
    "longitude": "81.5"
  },
  {
    "stateName": "CHHATTISGARH",
    "circleName": "Chattisgarh Circle",
    "regionName": "DivReportingCircle",
    "divisionName": "Raipur Division",
    "officeName": "Saloni BO",
    "pinCode": "493228",
    "officeType": "BO",
    "district": "BALODA BAZAR",
    "latitude": "21.5",
    "longitude": "81.5"
  },
  {
    "stateName": "CHHATTISGARH",
    "circleName": "Chattisgarh Circle",
    "regionName": "DivReportingCircle",
    "divisionName": "Raipur Division",
    "officeName": "Hasda BO",
    "pinCode": "492109",
    "officeType": "BO",
    "district": "GARIYABAND",
    "latitude": "21.5",
    "longitude": "81.5"
  },
  {
    "stateName": "CHHATTISGARH",
    "circleName": "Chattisgarh Circle",
    "regionName": "DivReportingCircle",
    "divisionName": "Raipur Division",
    "officeName": "Mundibhawar BO",
    "pinCode": "492109",
    "officeType": "BO",
    "district": "GARIYABAND",
    "latitude": "21.5",
    "longitude": "81.5"
  },
  {
    "stateName": "CHHATTISGARH",
    "circleName": "Chattisgarh Circle",
    "regionName": "DivReportingCircle",
    "divisionName": "Raipur Division",
    "officeName": "Pond BO",
    "pinCode": "492109",
    "officeType": "BO",
    "district": "GARIYABAND",
    "latitude": "21.5",
    "longitude": "81.5"
  },
  {
    "stateName": "CHHATTISGARH",
    "circleName": "Chattisgarh Circle",
    "regionName": "DivReportingCircle",
    "divisionName": "Raipur Division",
    "officeName": "Tourenga B.O",
    "pinCode": "492109",
    "officeType": "BO",
    "district": "GARIYABAND",
    "latitude": "20.8014608",
    "longitude": "82.2141804"
  },
  {
    "stateName": "CHHATTISGARH",
    "circleName": "Chattisgarh Circle",
    "regionName": "DivReportingCircle",
    "divisionName": "Raipur Division",
    "officeName": "Baruka B.O",
    "pinCode": "492109",
    "officeType": "BO",
    "district": "GARIYABAND",
    "latitude": "20.375138",
    "longitude": "82.03368"
  },
  {
    "stateName": "CHHATTISGARH",
    "circleName": "Chattisgarh Circle",
    "regionName": "DivReportingCircle",
    "divisionName": "Raipur Division",
    "officeName": "Belar BO",
    "pinCode": "493992",
    "officeType": "BO",
    "district": "GARIYABAND",
    "latitude": "21.5",
    "longitude": "81.5"
  },
  {
    "stateName": "CHHATTISGARH",
    "circleName": "Chattisgarh Circle",
    "regionName": "DivReportingCircle",
    "divisionName": "Raipur Division",
    "officeName": "Deori BO",
    "pinCode": "493992",
    "officeType": "BO",
    "district": "GARIYABAND",
    "latitude": "21.5",
    "longitude": "81.5"
  },
  {
    "stateName": "CHHATTISGARH",
    "circleName": "Chattisgarh Circle",
    "regionName": "DivReportingCircle",
    "divisionName": "Raipur Division",
    "officeName": "Sorid BO",
    "pinCode": "493992",
    "officeType": "BO",
    "district": "GARIYABAND",
    "latitude": "21.5",
    "longitude": "81.5"
  },
  {
    "stateName": "CHHATTISGARH",
    "circleName": "Chattisgarh Circle",
    "regionName": "DivReportingCircle",
    "divisionName": "Raipur Division",
    "officeName": "Tarighat BO",
    "pinCode": "493992",
    "officeType": "BO",
    "district": "GARIYABAND",
    "latitude": "21.5",
    "longitude": "81.5"
  },
  {
    "stateName": "CHHATTISGARH",
    "circleName": "Chattisgarh Circle",
    "regionName": "DivReportingCircle",
    "divisionName": "Raipur Division",
    "officeName": "Jogidipa B.O",
    "pinCode": "493551",
    "officeType": "BO",
    "district": "MAHASAMUND",
    "latitude": "21.18475",
    "longitude": "82.59498"
  },
  {
    "stateName": "CHHATTISGARH",
    "circleName": "Chattisgarh Circle",
    "regionName": "DivReportingCircle",
    "divisionName": "Raipur Division",
    "officeName": "Sinodha B.O",
    "pinCode": "493551",
    "officeType": "BO",
    "district": "MAHASAMUND",
    "latitude": "21.063429",
    "longitude": "82.053696"
  },
  {
    "stateName": "CHHATTISGARH",
    "circleName": "Chattisgarh Circle",
    "regionName": "DivReportingCircle",
    "divisionName": "Raipur Division",
    "officeName": "Champaran BO",
    "pinCode": "493885",
    "officeType": "BO",
    "district": "RAIPUR",
    "latitude": "21.5",
    "longitude": "81.5"
  },
  {
    "stateName": "CHHATTISGARH",
    "circleName": "Chattisgarh Circle",
    "regionName": "DivReportingCircle",
    "divisionName": "Raipur Division",
    "officeName": "Kirwai BO",
    "pinCode": "493885",
    "officeType": "BO",
    "district": "GARIYABAND",
    "latitude": "21.5",
    "longitude": "81.5"
  },
  {
    "stateName": "CHHATTISGARH",
    "circleName": "Chattisgarh Circle",
    "regionName": "DivReportingCircle",
    "divisionName": "Raipur Division",
    "officeName": "Sursabandha BO",
    "pinCode": "493885",
    "officeType": "BO",
    "district": "GARIYABAND",
    "latitude": "21.5",
    "longitude": "81.5"
  },
  {
    "stateName": "CHHATTISGARH",
    "circleName": "Chattisgarh Circle",
    "regionName": "DivReportingCircle",
    "divisionName": "Raipur Division",
    "officeName": "Karmada BO",
    "pinCode": "493331",
    "officeType": "BO",
    "district": "BALODA BAZAR",
    "latitude": "21.5",
    "longitude": "81.5"
  },
  {
    "stateName": "CHHATTISGARH",
    "circleName": "Chattisgarh Circle",
    "regionName": "DivReportingCircle",
    "divisionName": "Raipur Division",
    "officeName": "Tonatar BO",
    "pinCode": "493331",
    "officeType": "BO",
    "district": "BALODA BAZAR",
    "latitude": "21.5",
    "longitude": "81.5"
  },
  {
    "stateName": "CHHATTISGARH",
    "circleName": "Chattisgarh Circle",
    "regionName": "DivReportingCircle",
    "divisionName": "Raipur Division",
    "officeName": "Bhatgaon BO",
    "pinCode": "493776",
    "officeType": "BO",
    "district": "DHAMTARI",
    "latitude": "21.5",
    "longitude": "81.5"
  },
  {
    "stateName": "CHHATTISGARH",
    "circleName": "Chattisgarh Circle",
    "regionName": "DivReportingCircle",
    "divisionName": "Raipur Division",
    "officeName": "Paraswani BO",
    "pinCode": "492112",
    "officeType": "BO",
    "district": "BALODA BAZAR",
    "latitude": "21.5",
    "longitude": "81.5"
  },
  {
    "stateName": "CHHATTISGARH",
    "circleName": "Chattisgarh Circle",
    "regionName": "DivReportingCircle",
    "divisionName": "Raipur Division",
    "officeName": "Bonda BO",
    "pinCode": "493558",
    "officeType": "BO",
    "district": "MAHASAMUND",
    "latitude": "21.5",
    "longitude": "81.5"
  },
  {
    "stateName": "CHHATTISGARH",
    "circleName": "Chattisgarh Circle",
    "regionName": "DivReportingCircle",
    "divisionName": "Raipur Division",
    "officeName": "Jamhari BO",
    "pinCode": "493558",
    "officeType": "BO",
    "district": "MAHASAMUND",
    "latitude": "21.5",
    "longitude": "81.5"
  },
  {
    "stateName": "CHHATTISGARH",
    "circleName": "Chattisgarh Circle",
    "regionName": "DivReportingCircle",
    "divisionName": "Raipur Division",
    "officeName": "Kendudhar BO",
    "pinCode": "493558",
    "officeType": "BO",
    "district": "MAHASAMUND",
    "latitude": "21.5",
    "longitude": "81.5"
  },
  {
    "stateName": "CHHATTISGARH",
    "circleName": "Chattisgarh Circle",
    "regionName": "DivReportingCircle",
    "divisionName": "Raipur Division",
    "officeName": "Putka BO",
    "pinCode": "493558",
    "officeType": "BO",
    "district": "MAHASAMUND",
    "latitude": "21.23784",
    "longitude": "81.70542"
  },
  {
    "stateName": "CHHATTISGARH",
    "circleName": "Chattisgarh Circle",
    "regionName": "DivReportingCircle",
    "divisionName": "Raipur Division",
    "officeName": "Singhanpur BO",
    "pinCode": "493558",
    "officeType": "BO",
    "district": "MAHASAMUND",
    "latitude": "21.23784",
    "longitude": "81.70542"
  },
  {
    "stateName": "CHHATTISGARH",
    "circleName": "Chattisgarh Circle",
    "regionName": "DivReportingCircle",
    "divisionName": "Raipur Division",
    "officeName": "Toshgaon BO",
    "pinCode": "493558",
    "officeType": "BO",
    "district": "MAHASAMUND",
    "latitude": "21.23784",
    "longitude": "81.70542"
  },
  {
    "stateName": "CHHATTISGARH",
    "circleName": "Chattisgarh Circle",
    "regionName": "DivReportingCircle",
    "divisionName": "Raipur Division",
    "officeName": "Kusmur B.O",
    "pinCode": "493558",
    "officeType": "BO",
    "district": "MAHASAMUND",
    "latitude": "21.252819",
    "longitude": "81.522346"
  },
  {
    "stateName": "CHHATTISGARH",
    "circleName": "Chattisgarh Circle",
    "regionName": "DivReportingCircle",
    "divisionName": "Raipur Division",
    "officeName": "Bhinodi BO",
    "pinCode": "493559",
    "officeType": "BO",
    "district": "BALODA BAZAR",
    "latitude": "21.23784",
    "longitude": "81.70542"
  },
  {
    "stateName": "CHHATTISGARH",
    "circleName": "Chattisgarh Circle",
    "regionName": "DivReportingCircle",
    "divisionName": "Raipur Division",
    "officeName": "Pandripali BO",
    "pinCode": "493559",
    "officeType": "BO",
    "district": "BALODA BAZAR",
    "latitude": "21.23784",
    "longitude": "81.70542"
  },
  {
    "stateName": "CHHATTISGARH",
    "circleName": "Chattisgarh Circle",
    "regionName": "DivReportingCircle",
    "divisionName": "Raipur Division",
    "officeName": "Bishrampur BO",
    "pinCode": "493101",
    "officeType": "BO",
    "district": "BALODA BAZAR",
    "latitude": "21.23784",
    "longitude": "81.70542"
  },
  {
    "stateName": "CHHATTISGARH",
    "circleName": "Chattisgarh Circle",
    "regionName": "DivReportingCircle",
    "divisionName": "Raipur Division",
    "officeName": "Jara BO",
    "pinCode": "493229",
    "officeType": "BO",
    "district": "BALODA BAZAR",
    "latitude": "21.5",
    "longitude": "81.5"
  },
  {
    "stateName": "CHHATTISGARH",
    "circleName": "Chattisgarh Circle",
    "regionName": "DivReportingCircle",
    "divisionName": "Raipur Division",
    "officeName": "Jerway BO",
    "pinCode": "493229",
    "officeType": "BO",
    "district": "BALODA BAZAR",
    "latitude": "21.5",
    "longitude": "81.2"
  },
  {
    "stateName": "CHHATTISGARH",
    "circleName": "Chattisgarh Circle",
    "regionName": "DivReportingCircle",
    "divisionName": "Raipur Division",
    "officeName": "Narra BO",
    "pinCode": "493448",
    "officeType": "BO",
    "district": "MAHASAMUND",
    "latitude": "21.23784",
    "longitude": "81.70542"
  },
  {
    "stateName": "CHHATTISGARH",
    "circleName": "Chattisgarh Circle",
    "regionName": "DivReportingCircle",
    "divisionName": "Raipur Division",
    "officeName": "Bhalesar B.O",
    "pinCode": "493448",
    "officeType": "BO",
    "district": "MAHASAMUND",
    "latitude": "21.079278",
    "longitude": "82.092458"
  },
  {
    "stateName": "CHHATTISGARH",
    "circleName": "Chattisgarh Circle",
    "regionName": "DivReportingCircle",
    "divisionName": "Bastar Division",
    "officeName": "Aadimpar",
    "pinCode": "494661",
    "officeType": "BO",
    "district": "NARAYANPUR",
    "latitude": "NA",
    "longitude": "NA"
  },
  {
    "stateName": "CHHATTISGARH",
    "circleName": "Chattisgarh Circle",
    "regionName": "DivReportingCircle",
    "divisionName": "Bastar Division",
    "officeName": "Rotad",
    "pinCode": "494662",
    "officeType": "BO",
    "district": "NARAYANPUR",
    "latitude": "19.434138",
    "longitude": "81.345038"
  },
  {
    "stateName": "CHHATTISGARH",
    "circleName": "Chattisgarh Circle",
    "regionName": "DivReportingCircle",
    "divisionName": "Bastar Division",
    "officeName": "Marwadi B.O",
    "pinCode": "494333",
    "officeType": "BO",
    "district": "RAIPUR",
    "latitude": "20.51",
    "longitude": "81.61"
  },
  {
    "stateName": "CHHATTISGARH",
    "circleName": "Chattisgarh Circle",
    "regionName": "DivReportingCircle",
    "divisionName": "Bastar Division",
    "officeName": "Devgaon B.O",
    "pinCode": "494333",
    "officeType": "BO",
    "district": "RAIPUR",
    "latitude": "20.4102",
    "longitude": "81.6067"
  },
  {
    "stateName": "CHHATTISGARH",
    "circleName": "Chattisgarh Circle",
    "regionName": "DivReportingCircle",
    "divisionName": "Bastar Division",
    "officeName": "Ganvarsili",
    "pinCode": "494333",
    "officeType": "BO",
    "district": "RAIPUR",
    "latitude": "20.350946",
    "longitude": "81.632319"
  },
  {
    "stateName": "CHHATTISGARH",
    "circleName": "Chattisgarh Circle",
    "regionName": "DivReportingCircle",
    "divisionName": "Bastar Division",
    "officeName": "Esebeda B.O",
    "pinCode": "494776",
    "officeType": "BO",
    "district": "KANKER",
    "latitude": "80.6053",
    "longitude": "19.87"
  },
  {
    "stateName": "CHHATTISGARH",
    "circleName": "Chattisgarh Circle",
    "regionName": "DivReportingCircle",
    "divisionName": "Bastar Division",
    "officeName": "Pratappur B.O",
    "pinCode": "494776",
    "officeType": "BO",
    "district": "KANKER",
    "latitude": "80.8702",
    "longitude": "19.9765"
  },
  {
    "stateName": "CHHATTISGARH",
    "circleName": "Chattisgarh Circle",
    "regionName": "DivReportingCircle",
    "divisionName": "Bastar Division",
    "officeName": "PV 15 B.O",
    "pinCode": "494776",
    "officeType": "BO",
    "district": "KANKER",
    "latitude": "80.6857",
    "longitude": "20.0112"
  },
  {
    "stateName": "CHHATTISGARH",
    "circleName": "Chattisgarh Circle",
    "regionName": "DivReportingCircle",
    "divisionName": "Bastar Division",
    "officeName": "Baikunth Pur",
    "pinCode": "494776",
    "officeType": "BO",
    "district": "KANKER",
    "latitude": "20.02341",
    "longitude": "80.63394"
  },
  {
    "stateName": "CHHATTISGARH",
    "circleName": "Chattisgarh Circle",
    "regionName": "DivReportingCircle",
    "divisionName": "Bastar Division",
    "officeName": "Jaipur",
    "pinCode": "494776",
    "officeType": "BO",
    "district": "KANKER",
    "latitude": "20.02769",
    "longitude": "81.63747"
  },
  {
    "stateName": "CHHATTISGARH",
    "circleName": "Chattisgarh Circle",
    "regionName": "DivReportingCircle",
    "divisionName": "Bastar Division",
    "officeName": "Machpalli",
    "pinCode": "494776",
    "officeType": "BO",
    "district": "KANKER",
    "latitude": "20.02247",
    "longitude": "81.642158"
  },
  {
    "stateName": "CHHATTISGARH",
    "circleName": "Chattisgarh Circle",
    "regionName": "DivReportingCircle",
    "divisionName": "Bastar Division",
    "officeName": "Ravindranagar",
    "pinCode": "494776",
    "officeType": "BO",
    "district": "KANKER",
    "latitude": "20.02215",
    "longitude": "81.637215"
  },
  {
    "stateName": "CHHATTISGARH",
    "circleName": "Chattisgarh Circle",
    "regionName": "DivReportingCircle",
    "divisionName": "Bastar Division",
    "officeName": "Kringalmuspi",
    "pinCode": "494776",
    "officeType": "BO",
    "district": "KANKER",
    "latitude": "19.940961",
    "longitude": "80.81988"
  },
  {
    "stateName": "CHHATTISGARH",
    "circleName": "Chattisgarh Circle",
    "regionName": "DivReportingCircle",
    "divisionName": "Bastar Division",
    "officeName": "Lanjoda B.O",
    "pinCode": "494229",
    "officeType": "BO",
    "district": "KONDAGAON",
    "latitude": "19.28307",
    "longitude": "81.13056"
  },
  {
    "stateName": "CHHATTISGARH",
    "circleName": "Chattisgarh Circle",
    "regionName": "DivReportingCircle",
    "divisionName": "Bastar Division",
    "officeName": "Kumharbadgaon B.O",
    "pinCode": "494229",
    "officeType": "BO",
    "district": "KONDAGAON",
    "latitude": "19.7157",
    "longitude": "81.6523"
  },
  {
    "stateName": "CHHATTISGARH",
    "circleName": "Chattisgarh Circle",
    "regionName": "DivReportingCircle",
    "divisionName": "Bastar Division",
    "officeName": "Kotpad B.O",
    "pinCode": "494228",
    "officeType": "BO",
    "district": "KONDAGAON",
    "latitude": "19.80837",
    "longitude": "81.47458"
  },
  {
    "stateName": "CHHATTISGARH",
    "circleName": "Chattisgarh Circle",
    "regionName": "DivReportingCircle",
    "divisionName": "Bastar Division",
    "officeName": "Bangoli",
    "pinCode": "494228",
    "officeType": "BO",
    "district": "KONDAGAON",
    "latitude": "19.8244",
    "longitude": "81.6254"
  },
  {
    "stateName": "CHHATTISGARH",
    "circleName": "Chattisgarh Circle",
    "regionName": "DivReportingCircle",
    "divisionName": "Bastar Division",
    "officeName": "Madagaon",
    "pinCode": "494228",
    "officeType": "BO",
    "district": "KONDAGAON",
    "latitude": "19.80214",
    "longitude": "81.64215"
  },
  {
    "stateName": "CHHATTISGARH",
    "circleName": "Chattisgarh Circle",
    "regionName": "DivReportingCircle",
    "divisionName": "Bastar Division",
    "officeName": "Amabeda B.O",
    "pinCode": "494230",
    "officeType": "BO",
    "district": "KONDAGAON",
    "latitude": "19.5959",
    "longitude": "81.6638"
  },
  {
    "stateName": "CHHATTISGARH",
    "circleName": "Chattisgarh Circle",
    "regionName": "DivReportingCircle",
    "divisionName": "Bastar Division",
    "officeName": "Arandi B.O",
    "pinCode": "494230",
    "officeType": "BO",
    "district": "KONDAGAON",
    "latitude": "19.9743",
    "longitude": "81.5487"
  },
  {
    "stateName": "CHHATTISGARH",
    "circleName": "Chattisgarh Circle",
    "regionName": "DivReportingCircle",
    "divisionName": "Bastar Division",
    "officeName": "Cherbeda B.O",
    "pinCode": "494230",
    "officeType": "BO",
    "district": "KONDAGAON",
    "latitude": "19.5959",
    "longitude": "81.6648"
  },
  {
    "stateName": "CHHATTISGARH",
    "circleName": "Chattisgarh Circle",
    "regionName": "DivReportingCircle",
    "divisionName": "Bastar Division",
    "officeName": "Dhanora B.O",
    "pinCode": "494230",
    "officeType": "BO",
    "district": "KONDAGAON",
    "latitude": "19.4503",
    "longitude": "81.2412"
  },
  {
    "stateName": "CHHATTISGARH",
    "circleName": "Chattisgarh Circle",
    "regionName": "DivReportingCircle",
    "divisionName": "Bastar Division",
    "officeName": "Nagarbeda B.O",
    "pinCode": "494230",
    "officeType": "BO",
    "district": "KONDAGAON",
    "latitude": "20.0838",
    "longitude": "81.3751"
  },
  {
    "stateName": "CHHATTISGARH",
    "circleName": "Chattisgarh Circle",
    "regionName": "DivReportingCircle",
    "divisionName": "Bastar Division",
    "officeName": "Piprakhas B.O",
    "pinCode": "494230",
    "officeType": "BO",
    "district": "KONDAGAON",
    "latitude": "19.2037",
    "longitude": "81.9344"
  },
  {
    "stateName": "CHHATTISGARH",
    "circleName": "Chattisgarh Circle",
    "regionName": "DivReportingCircle",
    "divisionName": "Bastar Division",
    "officeName": "Sikagaon B.O",
    "pinCode": "494230",
    "officeType": "BO",
    "district": "KONDAGAON",
    "latitude": "19.9762",
    "longitude": "81.6501"
  },
  {
    "stateName": "CHHATTISGARH",
    "circleName": "Chattisgarh Circle",
    "regionName": "DivReportingCircle",
    "divisionName": "Bastar Division",
    "officeName": "Chindlibeda",
    "pinCode": "494230",
    "officeType": "BO",
    "district": "KONDAGAON",
    "latitude": "19.92156",
    "longitude": "81.5321"
  },
  {
    "stateName": "CHHATTISGARH",
    "circleName": "Chattisgarh Circle",
    "regionName": "DivReportingCircle",
    "divisionName": "Bastar Division",
    "officeName": "Churegaon",
    "pinCode": "494230",
    "officeType": "BO",
    "district": "KONDAGAON",
    "latitude": "19.93145",
    "longitude": "81.6214"
  },
  {
    "stateName": "CHHATTISGARH",
    "circleName": "Chattisgarh Circle",
    "regionName": "DivReportingCircle",
    "divisionName": "Bastar Division",
    "officeName": "Korkoti",
    "pinCode": "494230",
    "officeType": "BO",
    "district": "KONDAGAON",
    "latitude": "19.92145",
    "longitude": "81.71236"
  },
  {
    "stateName": "CHHATTISGARH",
    "circleName": "Chattisgarh Circle",
    "regionName": "DivReportingCircle",
    "divisionName": "Bastar Division",
    "officeName": "Bokarbeda B.O",
    "pinCode": "494230",
    "officeType": "BO",
    "district": "KONDAGAON",
    "latitude": "20.2771",
    "longitude": "81.8698"
  },
  {
    "stateName": "CHHATTISGARH",
    "circleName": "Chattisgarh Circle",
    "regionName": "DivReportingCircle",
    "divisionName": "Bastar Division",
    "officeName": "Damkasa B.O",
    "pinCode": "494635",
    "officeType": "BO",
    "district": "KANKER",
    "latitude": "20.34",
    "longitude": "80.93"
  },
  {
    "stateName": "CHHATTISGARH",
    "circleName": "Chattisgarh Circle",
    "regionName": "DivReportingCircle",
    "divisionName": "Bastar Division",
    "officeName": "Barheli",
    "pinCode": "494635",
    "officeType": "BO",
    "district": "KANKER",
    "latitude": "20.4123",
    "longitude": "81.06521"
  },
  {
    "stateName": "CHHATTISGARH",
    "circleName": "Chattisgarh Circle",
    "regionName": "DivReportingCircle",
    "divisionName": "Bastar Division",
    "officeName": "Bogar",
    "pinCode": "494635",
    "officeType": "BO",
    "district": "KANKER",
    "latitude": "20.30125",
    "longitude": "81.09415"
  },
  {
    "stateName": "CHHATTISGARH",
    "circleName": "Chattisgarh Circle",
    "regionName": "DivReportingCircle",
    "divisionName": "Bastar Division",
    "officeName": "Chichgaon",
    "pinCode": "494635",
    "officeType": "BO",
    "district": "KANKER",
    "latitude": "20.30154",
    "longitude": "81.0894"
  },
  {
    "stateName": "CHHATTISGARH",
    "circleName": "Chattisgarh Circle",
    "regionName": "DivReportingCircle",
    "divisionName": "Bastar Division",
    "officeName": "Chihro",
    "pinCode": "494635",
    "officeType": "BO",
    "district": "KANKER",
    "latitude": "20.3069",
    "longitude": "81.02365"
  },
  {
    "stateName": "CHHATTISGARH",
    "circleName": "Chattisgarh Circle",
    "regionName": "DivReportingCircle",
    "divisionName": "Bastar Division",
    "officeName": "Parekodo",
    "pinCode": "494635",
    "officeType": "BO",
    "district": "KANKER",
    "latitude": "20.30654",
    "longitude": "81.02156"
  },
  {
    "stateName": "CHHATTISGARH",
    "circleName": "Chattisgarh Circle",
    "regionName": "DivReportingCircle",
    "divisionName": "Bastar Division",
    "officeName": "Raurwahi",
    "pinCode": "494635",
    "officeType": "BO",
    "district": "KANKER",
    "latitude": "20.30421",
    "longitude": "81.02256"
  },
  {
    "stateName": "CHHATTISGARH",
    "circleName": "Chattisgarh Circle",
    "regionName": "DivReportingCircle",
    "divisionName": "Bastar Division",
    "officeName": "Naghur",
    "pinCode": "494635",
    "officeType": "BO",
    "district": "KANKER",
    "latitude": "20.413689",
    "longitude": "80.936893"
  },
  {
    "stateName": "CHHATTISGARH",
    "circleName": "Chattisgarh Circle",
    "regionName": "DivReportingCircle",
    "divisionName": "Bastar Division",
    "officeName": "Samtara B.O",
    "pinCode": "494335",
    "officeType": "BO",
    "district": "RAIPUR",
    "latitude": "20.32758",
    "longitude": "81.72378"
  },
  {
    "stateName": "CHHATTISGARH",
    "circleName": "Chattisgarh Circle",
    "regionName": "DivReportingCircle",
    "divisionName": "Bastar Division",
    "officeName": "Kopra B.O",
    "pinCode": "494347",
    "officeType": "BO",
    "district": "RAIPUR",
    "latitude": "19.928",
    "longitude": "81.7081"
  },
  {
    "stateName": "CHHATTISGARH",
    "circleName": "Chattisgarh Circle",
    "regionName": "DivReportingCircle",
    "divisionName": "Bastar Division",
    "officeName": "Marangpuri B.O",
    "pinCode": "494347",
    "officeType": "BO",
    "district": "RAIPUR",
    "latitude": "20.00974",
    "longitude": "81.86341"
  },
  {
    "stateName": "CHHATTISGARH",
    "circleName": "Chattisgarh Circle",
    "regionName": "DivReportingCircle",
    "divisionName": "Bastar Division",
    "officeName": "Tenwsa B.O",
    "pinCode": "494347",
    "officeType": "BO",
    "district": "RAIPUR",
    "latitude": "20.002",
    "longitude": "81.6934"
  },
  {
    "stateName": "CHHATTISGARH",
    "circleName": "Chattisgarh Circle",
    "regionName": "DivReportingCircle",
    "divisionName": "Bastar Division",
    "officeName": "Korhobeda B.O",
    "pinCode": "494347",
    "officeType": "BO",
    "district": "RAIPUR",
    "latitude": "19.5562",
    "longitude": "81.5188"
  },
  {
    "stateName": "CHHATTISGARH",
    "circleName": "Chattisgarh Circle",
    "regionName": "DivReportingCircle",
    "divisionName": "Bastar Division",
    "officeName": "Khargaon B.O",
    "pinCode": "494347",
    "officeType": "BO",
    "district": "RAIPUR",
    "latitude": "19.6711",
    "longitude": "81.4866"
  },
  {
    "stateName": "CHHATTISGARH",
    "circleName": "Chattisgarh Circle",
    "regionName": "DivReportingCircle",
    "divisionName": "Bastar Division",
    "officeName": "Shampur B.O",
    "pinCode": "494237",
    "officeType": "BO",
    "district": "KONDAGAON",
    "latitude": "19.7185",
    "longitude": "81.7623"
  },
  {
    "stateName": "CHHATTISGARH",
    "circleName": "Chattisgarh Circle",
    "regionName": "DivReportingCircle",
    "divisionName": "Bastar Division",
    "officeName": "Anantpur",
    "pinCode": "494237",
    "officeType": "BO",
    "district": "KONDAGAON",
    "latitude": "19.523",
    "longitude": "81.6214"
  },
  {
    "stateName": "CHHATTISGARH",
    "circleName": "Chattisgarh Circle",
    "regionName": "DivReportingCircle",
    "divisionName": "Bastar Division",
    "officeName": "Pidhapal",
    "pinCode": "494237",
    "officeType": "BO",
    "district": "KONDAGAON",
    "latitude": "19.5432",
    "longitude": "81.54123"
  },
  {
    "stateName": "CHHATTISGARH",
    "circleName": "Chattisgarh Circle",
    "regionName": "DivReportingCircle",
    "divisionName": "Bastar Division",
    "officeName": "Rakashbeda",
    "pinCode": "494237",
    "officeType": "BO",
    "district": "KONDAGAON",
    "latitude": "19.5641",
    "longitude": "81.59213"
  },
  {
    "stateName": "CHHATTISGARH",
    "circleName": "Chattisgarh Circle",
    "regionName": "DivReportingCircle",
    "divisionName": "Bastar Division",
    "officeName": "Torandi",
    "pinCode": "494237",
    "officeType": "BO",
    "district": "KONDAGAON",
    "latitude": "19.4591",
    "longitude": "81.5782"
  },
  {
    "stateName": "CHHATTISGARH",
    "circleName": "Chattisgarh Circle",
    "regionName": "DivReportingCircle",
    "divisionName": "Bastar Division",
    "officeName": "Umargaon B.O",
    "pinCode": "494237",
    "officeType": "BO",
    "district": "KONDAGAON",
    "latitude": "19.7312",
    "longitude": "81.9004"
  },
  {
    "stateName": "CHHATTISGARH",
    "circleName": "Chattisgarh Circle",
    "regionName": "DivReportingCircle",
    "divisionName": "Bilaspur Division",
    "officeName": "Birkoni BO",
    "pinCode": "495552",
    "officeType": "BO",
    "district": "JANJGIR-CHAMPA",
    "latitude": "22.051214",
    "longitude": "82.519998"
  },
  {
    "stateName": "CHHATTISGARH",
    "circleName": "Chattisgarh Circle",
    "regionName": "DivReportingCircle",
    "divisionName": "Bilaspur Division",
    "officeName": "Kapan BO",
    "pinCode": "495552",
    "officeType": "BO",
    "district": "JANJGIR-CHAMPA",
    "latitude": "22.016257",
    "longitude": "82.475381"
  },
  {
    "stateName": "CHHATTISGARH",
    "circleName": "Chattisgarh Circle",
    "regionName": "DivReportingCircle",
    "divisionName": "Bilaspur Division",
    "officeName": "Budganan BO",
    "pinCode": "495559",
    "officeType": "BO",
    "district": "JANJGIR-CHAMPA",
    "latitude": "22.218779",
    "longitude": "82.526701"
  },
  {
    "stateName": "CHHATTISGARH",
    "circleName": "Chattisgarh Circle",
    "regionName": "DivReportingCircle",
    "divisionName": "Bilaspur Division",
    "officeName": "Dongri BO",
    "pinCode": "495559",
    "officeType": "BO",
    "district": "JANJGIR-CHAMPA",
    "latitude": "22.153857",
    "longitude": "82.532112"
  },
  {
    "stateName": "CHHATTISGARH",
    "circleName": "Chattisgarh Circle",
    "regionName": "DivReportingCircle",
    "divisionName": "Bilaspur Division",
    "officeName": "Khisora BO",
    "pinCode": "495559",
    "officeType": "BO",
    "district": "JANJGIR-CHAMPA",
    "latitude": "22.17762",
    "longitude": "82.565921"
  },
  {
    "stateName": "CHHATTISGARH",
    "circleName": "Chattisgarh Circle",
    "regionName": "DivReportingCircle",
    "divisionName": "Bilaspur Division",
    "officeName": "Mithunawagaon BO",
    "pinCode": "495116",
    "officeType": "BO",
    "district": "BILASPUR",
    "latitude": "22.56861",
    "longitude": "81.980753"
  },
  {
    "stateName": "CHHATTISGARH",
    "circleName": "Chattisgarh Circle",
    "regionName": "DivReportingCircle",
    "divisionName": "Bilaspur Division",
    "officeName": "Deorikhurd BO",
    "pinCode": "495004",
    "officeType": "BO",
    "district": "BILASPUR",
    "latitude": "22.128621",
    "longitude": "81.999837"
  },
  {
    "stateName": "CHHATTISGARH",
    "circleName": "Chattisgarh Circle",
    "regionName": "DivReportingCircle",
    "divisionName": "Bilaspur Division",
    "officeName": "Dhuma BO",
    "pinCode": "495004",
    "officeType": "BO",
    "district": "BILASPUR",
    "latitude": "22.020462",
    "longitude": "82.212142"
  },
  {
    "stateName": "CHHATTISGARH",
    "circleName": "Chattisgarh Circle",
    "regionName": "DivReportingCircle",
    "divisionName": "Bilaspur Division",
    "officeName": "Bartori BO",
    "pinCode": "495224",
    "officeType": "BO",
    "district": "BILASPUR",
    "latitude": "21.878069",
    "longitude": "82.144164"
  },
  {
    "stateName": "CHHATTISGARH",
    "circleName": "Chattisgarh Circle",
    "regionName": "DivReportingCircle",
    "divisionName": "Bilaspur Division",
    "officeName": "Bitkuli BO",
    "pinCode": "495224",
    "officeType": "BO",
    "district": "BILASPUR",
    "latitude": "21.935716",
    "longitude": "82.111512"
  },
  {
    "stateName": "CHHATTISGARH",
    "circleName": "Chattisgarh Circle",
    "regionName": "DivReportingCircle",
    "divisionName": "Bilaspur Division",
    "officeName": "Sakarra BO",
    "pinCode": "495220",
    "officeType": "BO",
    "district": "BILASPUR",
    "latitude": "22.037769",
    "longitude": "82.021898"
  },
  {
    "stateName": "CHHATTISGARH",
    "circleName": "Chattisgarh Circle",
    "regionName": "DivReportingCircle",
    "divisionName": "Bilaspur Division",
    "officeName": "Tanda BO",
    "pinCode": "495112",
    "officeType": "BO",
    "district": "BILASPUR",
    "latitude": "22.246737",
    "longitude": "81.994385"
  },
  {
    "stateName": "CHHATTISGARH",
    "circleName": "Chattisgarh Circle",
    "regionName": "DivReportingCircle",
    "divisionName": "Bilaspur Division",
    "officeName": "Kosa BO",
    "pinCode": "495663",
    "officeType": "BO",
    "district": "JANJGIR-CHAMPA",
    "latitude": "21.899131",
    "longitude": "82.339764"
  },
  {
    "stateName": "CHHATTISGARH",
    "circleName": "Chattisgarh Circle",
    "regionName": "DivReportingCircle",
    "divisionName": "Bilaspur Division",
    "officeName": "Dhaneli BO",
    "pinCode": "495668",
    "officeType": "BO",
    "district": "JANJGIR-CHAMPA",
    "latitude": "21.930913",
    "longitude": "82.580791"
  },
  {
    "stateName": "CHHATTISGARH",
    "circleName": "Chattisgarh Circle",
    "regionName": "DivReportingCircle",
    "divisionName": "Bilaspur Division",
    "officeName": "Hardi S BO",
    "pinCode": "495668",
    "officeType": "BO",
    "district": "JANJGIR-CHAMPA",
    "latitude": "21.911566",
    "longitude": "82.678046"
  },
  {
    "stateName": "CHHATTISGARH",
    "circleName": "Chattisgarh Circle",
    "regionName": "DivReportingCircle",
    "divisionName": "Bilaspur Division",
    "officeName": "Khokhra BO",
    "pinCode": "495668",
    "officeType": "BO",
    "district": "JANJGIR-CHAMPA",
    "latitude": "21.968818",
    "longitude": "82.567273"
  },
  {
    "stateName": "CHHATTISGARH",
    "circleName": "Chattisgarh Circle",
    "regionName": "DivReportingCircle",
    "divisionName": "Bilaspur Division",
    "officeName": "Khokhsa B.O",
    "pinCode": "495669",
    "officeType": "BO",
    "district": "JANJGIR-CHAMPA",
    "latitude": "22.036621",
    "longitude": "82.64463"
  },
  {
    "stateName": "CHHATTISGARH",
    "circleName": "Chattisgarh Circle",
    "regionName": "DivReportingCircle",
    "divisionName": "Bilaspur Division",
    "officeName": "Kuthur BO",
    "pinCode": "495668",
    "officeType": "BO",
    "district": "JANJGIR-CHAMPA",
    "latitude": "21.910689",
    "longitude": "82.526701"
  },
  {
    "stateName": "CHHATTISGARH",
    "circleName": "Chattisgarh Circle",
    "regionName": "DivReportingCircle",
    "divisionName": "Bilaspur Division",
    "officeName": "Kutra BO",
    "pinCode": "495668",
    "officeType": "BO",
    "district": "JANJGIR-CHAMPA",
    "latitude": "21.920435",
    "longitude": "82.545637"
  },
  {
    "stateName": "CHHATTISGARH",
    "circleName": "Chattisgarh Circle",
    "regionName": "DivReportingCircle",
    "divisionName": "Bilaspur Division",
    "officeName": "Semra BO",
    "pinCode": "495668",
    "officeType": "BO",
    "district": "JANJGIR-CHAMPA",
    "latitude": "21.86646",
    "longitude": "82.59701"
  },
  {
    "stateName": "CHHATTISGARH",
    "circleName": "Chattisgarh Circle",
    "regionName": "DivReportingCircle",
    "divisionName": "Bilaspur Division",
    "officeName": "Seoni B.O",
    "pinCode": "495669",
    "officeType": "BO",
    "district": "JANJGIR-CHAMPA",
    "latitude": "22.00922",
    "longitude": "82.5778"
  },
  {
    "stateName": "CHHATTISGARH",
    "circleName": "Chattisgarh Circle",
    "regionName": "DivReportingCircle",
    "divisionName": "Bilaspur Division",
    "officeName": "Sukli BO",
    "pinCode": "495668",
    "officeType": "BO",
    "district": "JANJGIR-CHAMPA",
    "latitude": "21.970283",
    "longitude": "82.599713"
  },
  {
    "stateName": "CHHATTISGARH",
    "circleName": "Chattisgarh Circle",
    "regionName": "DivReportingCircle",
    "divisionName": "Rajnandgaon Division",
    "officeName": "Pendri BO",
    "pinCode": "491441",
    "officeType": "BO",
    "district": "RAJNANDGAON",
    "latitude": "21.08294",
    "longitude": "80.98522"
  },
  {
    "stateName": "CHHATTISGARH",
    "circleName": "Chattisgarh Circle",
    "regionName": "DivReportingCircle",
    "divisionName": "Bilaspur Division",
    "officeName": "Achanakmar BO",
    "pinCode": "495113",
    "officeType": "BO",
    "district": "MUNGELI",
    "latitude": "22.410146",
    "longitude": "81.859316"
  },
  {
    "stateName": "CHHATTISGARH",
    "circleName": "Chattisgarh Circle",
    "regionName": "DivReportingCircle",
    "divisionName": "Bilaspur Division",
    "officeName": "Jhingatpur BO",
    "pinCode": "495113",
    "officeType": "BO",
    "district": "BILASPUR",
    "latitude": "22.347357",
    "longitude": "81.994385"
  },
  {
    "stateName": "CHHATTISGARH",
    "circleName": "Chattisgarh Circle",
    "regionName": "DivReportingCircle",
    "divisionName": "Bilaspur Division",
    "officeName": "Pali BO",
    "pinCode": "495113",
    "officeType": "BO",
    "district": "BILASPUR",
    "latitude": "22.297614",
    "longitude": "82.026252"
  },
  {
    "stateName": "CHHATTISGARH",
    "circleName": "Chattisgarh Circle",
    "regionName": "DivReportingCircle",
    "divisionName": "Bilaspur Division",
    "officeName": "Parsada BO",
    "pinCode": "495113",
    "officeType": "BO",
    "district": "BILASPUR",
    "latitude": "22.319508",
    "longitude": "81.969846"
  },
  {
    "stateName": "CHHATTISGARH",
    "circleName": "Chattisgarh Circle",
    "regionName": "DivReportingCircle",
    "divisionName": "Bilaspur Division",
    "officeName": "Shivtarai BO",
    "pinCode": "495113",
    "officeType": "BO",
    "district": "BILASPUR",
    "latitude": "22.34465",
    "longitude": "81.939842"
  },
  {
    "stateName": "CHHATTISGARH",
    "circleName": "Chattisgarh Circle",
    "regionName": "DivReportingCircle",
    "divisionName": "Bilaspur Division",
    "officeName": "Pali BO",
    "pinCode": "495448",
    "officeType": "BO",
    "district": "KORBA",
    "latitude": "22.375272",
    "longitude": "82.326198"
  },
  {
    "stateName": "CHHATTISGARH",
    "circleName": "Chattisgarh Circle",
    "regionName": "DivReportingCircle",
    "divisionName": "Bilaspur Division",
    "officeName": "Binjhra BO",
    "pinCode": "495445",
    "officeType": "BO",
    "district": "KORBA",
    "latitude": "22.52105",
    "longitude": "82.481495"
  },
  {
    "stateName": "CHHATTISGARH",
    "circleName": "Chattisgarh Circle",
    "regionName": "DivReportingCircle",
    "divisionName": "Bilaspur Division",
    "officeName": "Rajkamma BO",
    "pinCode": "495445",
    "officeType": "BO",
    "district": "KORBA",
    "latitude": "22.503075",
    "longitude": "82.551134"
  },
  {
    "stateName": "CHHATTISGARH",
    "circleName": "Chattisgarh Circle",
    "regionName": "DivReportingCircle",
    "divisionName": "Bilaspur Division",
    "officeName": "Semartal BO",
    "pinCode": "495009",
    "officeType": "BO",
    "district": "BILASPUR",
    "latitude": "22.188163",
    "longitude": "82.159125"
  },
  {
    "stateName": "CHHATTISGARH",
    "circleName": "Chattisgarh Circle",
    "regionName": "DivReportingCircle",
    "divisionName": "Bilaspur Division",
    "officeName": "Bandha BO",
    "pinCode": "495115",
    "officeType": "BO",
    "district": "BILASPUR",
    "latitude": "22.170351",
    "longitude": "81.739046"
  },
  {
    "stateName": "CHHATTISGARH",
    "circleName": "Chattisgarh Circle",
    "regionName": "DivReportingCircle",
    "divisionName": "Bilaspur Division",
    "officeName": "Barampur BO",
    "pinCode": "495115",
    "officeType": "BO",
    "district": "MUNGELI",
    "latitude": "22.210531",
    "longitude": "81.628168"
  },
  {
    "stateName": "CHHATTISGARH",
    "circleName": "Chattisgarh Circle",
    "regionName": "DivReportingCircle",
    "divisionName": "Bilaspur Division",
    "officeName": "Daukapa BO",
    "pinCode": "495115",
    "officeType": "BO",
    "district": "MUNGELI",
    "latitude": "22.238691",
    "longitude": "81.600765"
  },
  {
    "stateName": "CHHATTISGARH",
    "circleName": "Chattisgarh Circle",
    "regionName": "DivReportingCircle",
    "divisionName": "Bilaspur Division",
    "officeName": "Dindori BO",
    "pinCode": "495115",
    "officeType": "BO",
    "district": "MUNGELI",
    "latitude": "22.34231",
    "longitude": "81.565217"
  },
  {
    "stateName": "CHHATTISGARH",
    "circleName": "Chattisgarh Circle",
    "regionName": "DivReportingCircle",
    "divisionName": "Bilaspur Division",
    "officeName": "Jhapal BO",
    "pinCode": "495115",
    "officeType": "BO",
    "district": "MUNGELI",
    "latitude": "22.245458",
    "longitude": "81.67473"
  },
  {
    "stateName": "CHHATTISGARH",
    "circleName": "Chattisgarh Circle",
    "regionName": "DivReportingCircle",
    "divisionName": "Bilaspur Division",
    "officeName": "Kotri BO",
    "pinCode": "495115",
    "officeType": "BO",
    "district": "MUNGELI",
    "latitude": "22.217799",
    "longitude": "81.770499"
  },
  {
    "stateName": "CHHATTISGARH",
    "circleName": "Chattisgarh Circle",
    "regionName": "DivReportingCircle",
    "divisionName": "Bilaspur Division",
    "officeName": "Lagra BO",
    "pinCode": "495115",
    "officeType": "BO",
    "district": "MUNGELI",
    "latitude": "22.191916",
    "longitude": "81.554158"
  },
  {
    "stateName": "CHHATTISGARH",
    "circleName": "Chattisgarh Circle",
    "regionName": "DivReportingCircle",
    "divisionName": "Bilaspur Division",
    "officeName": "Sukli BO",
    "pinCode": "495115",
    "officeType": "BO",
    "district": "MUNGELI",
    "latitude": "22.245715",
    "longitude": "81.737678"
  },
  {
    "stateName": "CHHATTISGARH",
    "circleName": "Chattisgarh Circle",
    "regionName": "DivReportingCircle",
    "divisionName": "Bilaspur Division",
    "officeName": "Karhani BO",
    "pinCode": "495118",
    "officeType": "BO",
    "district": "Gaurella Pendra Marwahi",
    "latitude": "23.06056",
    "longitude": "81.969316"
  },
  {
    "stateName": "CHHATTISGARH",
    "circleName": "Chattisgarh Circle",
    "regionName": "DivReportingCircle",
    "divisionName": "Bilaspur Division",
    "officeName": "Parasi BO",
    "pinCode": "495118",
    "officeType": "BO",
    "district": "Gaurella Pendra Marwahi",
    "latitude": "23.055953",
    "longitude": "82.024366"
  },