[
  {
    "stateName": "ANDHRA PRADESH",
    "circleName": "Andhra Pradesh Circle",
    "regionName": "Visakhapatnam Region",
    "divisionName": "Anakapalle Division",
    "officeName": "Gopalapuram B.O",
    "pinCode": "531002",
    "officeType": "BO",
    "district": "VISAKHAPATANAM",
    "latitude": "17.6914259",
    "longitude": "17.6914259"
  },
  {
    "stateName": "ANDHRA PRADESH",
    "circleName": "Andhra Pradesh Circle",
    "regionName": "Vijayawada Region",
    "divisionName": "Vijayawada Division",
    "officeName": "Keesara BO",
    "pinCode": "521185",
    "officeType": "BO",
    "district": "NTR",
    "latitude": "16.720652",
    "longitude": "80.324827"
  },
  {
    "stateName": "ANDHRA PRADESH",
    "circleName": "Andhra Pradesh Circle",
    "regionName": "Kurnool Region",
    "divisionName": "Anantapur Division",
    "officeName": "Goridindla B.O",
    "pinCode": "515751",
    "officeType": "BO",
    "district": "ANANTAPUR",
    "latitude": "14.57",
    "longitude": "77.37"
  },
  {
    "stateName": "ANDHRA PRADESH",
    "circleName": "Andhra Pradesh Circle",
    "regionName": "Kurnool Region",
    "divisionName": "Anantapur Division",
    "officeName": "Madigubba B.O",
    "pinCode": "515751",
    "officeType": "BO",
    "district": "ANANTAPUR",
    "latitude": "14.65",
    "longitude": "77.47"
  },
  {
    "stateName": "ANDHRA PRADESH",
    "circleName": "Andhra Pradesh Circle",
    "regionName": "Kurnool Region",
    "divisionName": "Anantapur Division",
    "officeName": "Manirevu B.O",
    "pinCode": "515751",
    "officeType": "BO",
    "district": "ANANTAPUR",
    "latitude": "14.59",
    "longitude": "77.31"
  },
  {
    "stateName": "ANDHRA PRADESH",
    "circleName": "Andhra Pradesh Circle",
    "regionName": "Kurnool Region",
    "divisionName": "Anantapur Division",
    "officeName": "P Yaleru B.O",
    "pinCode": "515751",
    "officeType": "BO",
    "district": "ANANTAPUR",
    "latitude": "14.27",
    "longitude": "77.87"
  },
  {
    "stateName": "ANDHRA PRADESH",
    "circleName": "Andhra Pradesh Circle",
    "regionName": "Kurnool Region",
    "divisionName": "Anantapur Division",
    "officeName": "Talupuru B.O",
    "pinCode": "515751",
    "officeType": "BO",
    "district": "ANANTAPUR",
    "latitude": "14.6",
    "longitude": "77.49"
  },
  {
    "stateName": "ANDHRA PRADESH",
    "circleName": "Andhra Pradesh Circle",
    "regionName": "Vijayawada Region",
    "divisionName": "Eluru Division",
    "officeName": "Yerraguntapally B.O",
    "pinCode": "534460",
    "officeType": "BO",
    "district": "Eluru",
    "latitude": "16.775",
    "longitude": "81.4919"
  },
  {
    "stateName": "ANDHRA PRADESH",
    "circleName": "Andhra Pradesh Circle",
    "regionName": "Vijayawada Region",
    "divisionName": "Eluru Division",
    "officeName": "Kalarayanagudem B.O",
    "pinCode": "534462",
    "officeType": "BO",
    "district": "Eluru",
    "latitude": "16.8917",
    "longitude": "81.0579"
  },
  {
    "stateName": "ANDHRA PRADESH",
    "circleName": "Andhra Pradesh Circle",
    "regionName": "Vijayawada Region",
    "divisionName": "Eluru Division",
    "officeName": "Lingapalem B.O",
    "pinCode": "534462",
    "officeType": "BO",
    "district": "Eluru",
    "latitude": "16.9483",
    "longitude": "80.9914"
  },
  {
    "stateName": "ANDHRA PRADESH",
    "circleName": "Andhra Pradesh Circle",
    "regionName": "Vijayawada Region",
    "divisionName": "Eluru Division",
    "officeName": "Timmapuram B.O",
    "pinCode": "534426",
    "officeType": "BO",
    "district": "Eluru",
    "latitude": "16.9293",
    "longitude": "81.5568"
  },
  {
    "stateName": "ANDHRA PRADESH",
    "circleName": "Andhra Pradesh Circle",
    "regionName": "Vijayawada Region",
    "divisionName": "Eluru Division",
    "officeName": "Challavarigudem B.O",
    "pinCode": "534455",
    "officeType": "BO",
    "district": "Eluru",
    "latitude": "17.1575",
    "longitude": "81.2495"
  },
  {
    "stateName": "ANDHRA PRADESH",
    "circleName": "Andhra Pradesh Circle",
    "regionName": "Vijayawada Region",
    "divisionName": "Eluru Division",
    "officeName": "Guravaigudem B.O",
    "pinCode": "534455",
    "officeType": "BO",
    "district": "Eluru",
    "latitude": "17.1223",
    "longitude": "81.2923"
  },
  {
    "stateName": "ANDHRA PRADESH",
    "circleName": "Andhra Pradesh Circle",
    "regionName": "Vijayawada Region",
    "divisionName": "Eluru Division",
    "officeName": "Marlagudem B.O",
    "pinCode": "534455",
    "officeType": "BO",
    "district": "Eluru",
    "latitude": "17.1696",
    "longitude": "81.2822"
  },
  {
    "stateName": "ANDHRA PRADESH",
    "circleName": "Andhra Pradesh Circle",
    "regionName": "Vijayawada Region",
    "divisionName": "Eluru Division",
    "officeName": "Pattenapalem B.O",
    "pinCode": "534455",
    "officeType": "BO",
    "district": "Eluru",
    "latitude": "17.0994",
    "longitude": "81.296"
  },
  {
    "stateName": "ANDHRA PRADESH",
    "circleName": "Andhra Pradesh Circle",
    "regionName": "Vijayawada Region",
    "divisionName": "Eluru Division",
    "officeName": "Appalarajugudem B.O",
    "pinCode": "534456",
    "officeType": "BO",
    "district": "Eluru",
    "latitude": "17.716",
    "longitude": "81.0379"
  },
  {
    "stateName": "ANDHRA PRADESH",
    "circleName": "Andhra Pradesh Circle",
    "regionName": "Vijayawada Region",
    "divisionName": "Eluru Division",
    "officeName": "Bandivarigudem B.O",
    "pinCode": "534456",
    "officeType": "BO",
    "district": "Eluru",
    "latitude": "17.1816",
    "longitude": "81.3667"
  },
  {
    "stateName": "ANDHRA PRADESH",
    "circleName": "Andhra Pradesh Circle",
    "regionName": "Vijayawada Region",
    "divisionName": "Eluru Division",
    "officeName": "Kamaiahpalem B.O",
    "pinCode": "534456",
    "officeType": "BO",
    "district": "Eluru",
    "latitude": "17.2114",
    "longitude": "81.1347"
  },
  {
    "stateName": "ANDHRA PRADESH",
    "circleName": "Andhra Pradesh Circle",
    "regionName": "Vijayawada Region",
    "divisionName": "Eluru Division",
    "officeName": "Makkinavarigudem B.O",
    "pinCode": "534456",
    "officeType": "BO",
    "district": "Eluru",
    "latitude": "17.1611",
    "longitude": "81.0892"
  },
  {
    "stateName": "ANDHRA PRADESH",
    "circleName": "Andhra Pradesh Circle",
    "regionName": "Vijayawada Region",
    "divisionName": "Eluru Division",
    "officeName": "Ratsannagudem B.O",
    "pinCode": "534456",
    "officeType": "BO",
    "district": "Eluru",
    "latitude": "17.1241",
    "longitude": "81.0942"
  },
  {
    "stateName": "ANDHRA PRADESH",
    "circleName": "Andhra Pradesh Circle",
    "regionName": "Vijayawada Region",
    "divisionName": "Eluru Division",
    "officeName": "Koyarajahmundry B.O",
    "pinCode": "534311",
    "officeType": "BO",
    "district": "Eluru",
    "latitude": "17.1947",
    "longitude": "81.4099"
  },
  {
    "stateName": "ANDHRA PRADESH",
    "circleName": "Andhra Pradesh Circle",
    "regionName": "Vijayawada Region",
    "divisionName": "Eluru Division",
    "officeName": "Jagannadhapuram B.O",
    "pinCode": "534312",
    "officeType": "BO",
    "district": "WEST GODAVARI",
    "latitude": "16.9316",
    "longitude": "81.2378"
  },
  {
    "stateName": "ANDHRA PRADESH",
    "circleName": "Andhra Pradesh Circle",
    "regionName": "Vijayawada Region",
    "divisionName": "Eluru Division",
    "officeName": "Narasannapalem BO",
    "pinCode": "534312",
    "officeType": "BO",
    "district": "Eluru",
    "latitude": "NA",
    "longitude": "NA"
  },
  {
    "stateName": "ANDHRA PRADESH",
    "circleName": "Andhra Pradesh Circle",
    "regionName": "Vijayawada Region",
    "divisionName": "Eluru Division",
    "officeName": "Devulapalli B.O",
    "pinCode": "534451",
    "officeType": "BO",
    "district": "Eluru",
    "latitude": "17.0675",
    "longitude": "81.256"
  },
  {
    "stateName": "ANDHRA PRADESH",
    "circleName": "Andhra Pradesh Circle",
    "regionName": "Vijayawada Region",
    "divisionName": "Eluru Division",
    "officeName": "Yerrampally B.O",
    "pinCode": "534461",
    "officeType": "BO",
    "district": "Eluru",
    "latitude": "17.0177",
    "longitude": "81.0519"
  },
  {
    "stateName": "ANDHRA PRADESH",
    "circleName": "Andhra Pradesh Circle",
    "regionName": "Vijayawada Region",
    "divisionName": "Eluru Division",
    "officeName": "Koppulavarigudem B.O",
    "pinCode": "534435",
    "officeType": "BO",
    "district": "Eluru",
    "latitude": "16.8293",
    "longitude": "81.1424"
  },
  {
    "stateName": "ANDHRA PRADESH",
    "circleName": "Andhra Pradesh Circle",
    "regionName": "Vijayawada Region",
    "divisionName": "Eluru Division",
    "officeName": "Vegivada B.O",
    "pinCode": "534452",
    "officeType": "BO",
    "district": "Eluru",
    "latitude": "16.8692",
    "longitude": "81.1692"
  },
  {
    "stateName": "ANDHRA PRADESH",
    "circleName": "Andhra Pradesh Circle",
    "regionName": "Vijayawada Region",
    "divisionName": "Gudivada Division",
    "officeName": "Korlapadu B.O",
    "pinCode": "521324",
    "officeType": "BO",
    "district": "KRISHNA",
    "latitude": "16.36",
    "longitude": "81.25"
  },
  {
    "stateName": "ANDHRA PRADESH",
    "circleName": "Andhra Pradesh Circle",
    "regionName": "Vijayawada Region",
    "divisionName": "Gudivada Division",
    "officeName": "Vennanapudi B.O",
    "pinCode": "521321",
    "officeType": "BO",
    "district": "KRISHNA",
    "latitude": "16.52",
    "longitude": "18.01"
  },
  {
    "stateName": "ANDHRA PRADESH",
    "circleName": "Andhra Pradesh Circle",
    "regionName": "Vijayawada Region",
    "divisionName": "Gudivada Division",
    "officeName": "Achavaram B.O",
    "pinCode": "521333",
    "officeType": "BO",
    "district": "Eluru",
    "latitude": "16.52",
    "longitude": "81.19"
  },
  {
    "stateName": "ANDHRA PRADESH",
    "circleName": "Andhra Pradesh Circle",
    "regionName": "Vijayawada Region",
    "divisionName": "Gudivada Division",
    "officeName": "China Tadinada B.O",
    "pinCode": "521333",
    "officeType": "BO",
    "district": "Eluru",
    "latitude": "16.5031483",
    "longitude": "81.2876611"
  },
  {
    "stateName": "ANDHRA PRADESH",
    "circleName": "Andhra Pradesh Circle",
    "regionName": "Vijayawada Region",
    "divisionName": "Gudivada Division",
    "officeName": "Pedalanka B.O",
    "pinCode": "521344",
    "officeType": "BO",
    "district": "Eluru",
    "latitude": "16.44",
    "longitude": "81.38"
  },
  {
    "stateName": "ANDHRA PRADESH",
    "circleName": "Andhra Pradesh Circle",
    "regionName": "Vijayawada Region",
    "divisionName": "Gudivada Division",
    "officeName": "Venkatapuram B.O",
    "pinCode": "521344",
    "officeType": "BO",
    "district": "Eluru",
    "latitude": "16.52",
    "longitude": "81.27"
  },
  {
    "stateName": "ANDHRA PRADESH",
    "circleName": "Andhra Pradesh Circle",
    "regionName": "Vijayawada Region",
    "divisionName": "Gudivada Division",
    "officeName": "Mokasakalvapudi B.O",
    "pinCode": "521345",
    "officeType": "BO",
    "district": "Eluru",
    "latitude": "16.49",
    "longitude": "81.14"
  },
  {
    "stateName": "ANDHRA PRADESH",
    "circleName": "Andhra Pradesh Circle",
    "regionName": "Vijayawada Region",
    "divisionName": "Gudivada Division",
    "officeName": "Prathipadu B.O",
    "pinCode": "521345",
    "officeType": "BO",
    "district": "Eluru",
    "latitude": "16.54",
    "longitude": "81.17"
  },
  {
    "stateName": "ANDHRA PRADESH",
    "circleName": "Andhra Pradesh Circle",
    "regionName": "Vijayawada Region",
    "divisionName": "Gudivada Division",
    "officeName": "Chinapalaparru B.O",
    "pinCode": "521325",
    "officeType": "BO",
    "district": "Eluru",
    "latitude": "16.43",
    "longitude": "81.09"
  },
  {
    "stateName": "ANDHRA PRADESH",
    "circleName": "Andhra Pradesh Circle",
    "regionName": "Vijayawada Region",
    "divisionName": "Gudivada Division",
    "officeName": "Pedakamanapudi B.O",
    "pinCode": "521325",
    "officeType": "BO",
    "district": "Eluru",
    "latitude": "16.46",
    "longitude": "81.16"
  },
  {
    "stateName": "ANDHRA PRADESH",
    "circleName": "Andhra Pradesh Circle",
    "regionName": "Vijayawada Region",
    "divisionName": "Gudivada Division",
    "officeName": "Peruru B.O",
    "pinCode": "521325",
    "officeType": "BO",
    "district": "Eluru",
    "latitude": "16.46",
    "longitude": "81.11"
  },
  {
    "stateName": "ANDHRA PRADESH",
    "circleName": "Andhra Pradesh Circle",
    "regionName": "Vijayawada Region",
    "divisionName": "Gudivada Division",
    "officeName": "Kolletikota B.O",
    "pinCode": "521340",
    "officeType": "BO",
    "district": "Eluru",
    "latitude": "16.63",
    "longitude": "81.29"
  },
  {
    "stateName": "ANDHRA PRADESH",
    "circleName": "Andhra Pradesh Circle",
    "regionName": "Vijayawada Region",
    "divisionName": "Gudivada Division",
    "officeName": "Penchikalamarru B.O",
    "pinCode": "521340",
    "officeType": "BO",
    "district": "Eluru",
    "latitude": "16.59",
    "longitude": "81.32"
  },
  {
    "stateName": "ANDHRA PRADESH",
    "circleName": "Andhra Pradesh Circle",
    "regionName": "Vijayawada Region",
    "divisionName": "Gudivada Division",
    "officeName": "Seetanapalli B.O",
    "pinCode": "521340",
    "officeType": "BO",
    "district": "Eluru",
    "latitude": "16.55",
    "longitude": "81.28"
  },
  {
    "stateName": "ANDHRA PRADESH",
    "circleName": "Andhra Pradesh Circle",
    "regionName": "Vijayawada Region",
    "divisionName": "Gudivada Division",
    "officeName": "Korraguntapalem B.O",
    "pinCode": "521329",
    "officeType": "BO",
    "district": "Eluru",
    "latitude": "16.45",
    "longitude": "81.18"
  },
  {
    "stateName": "ANDHRA PRADESH",
    "circleName": "Andhra Pradesh Circle",
    "regionName": "Vijayawada Region",
    "divisionName": "Gudivada Division",
    "officeName": "Singarayapalem B.O",
    "pinCode": "521329",
    "officeType": "BO",
    "district": "Eluru",
    "latitude": "16.41",
    "longitude": "81.15"
  },
  {
    "stateName": "ANDHRA PRADESH",
    "circleName": "Andhra Pradesh Circle",
    "regionName": "Vijayawada Region",
    "divisionName": "Gudivada Division",
    "officeName": "Vaivaka B.O",
    "pinCode": "521329",
    "officeType": "BO",
    "district": "Eluru",
    "latitude": "16.43",
    "longitude": "81.25"
  },
  {
    "stateName": "ANDHRA PRADESH",
    "circleName": "Andhra Pradesh Circle",
    "regionName": "Vijayawada Region",
    "divisionName": "Gudivada Division",
    "officeName": "Addada B.O",
    "pinCode": "521390",
    "officeType": "BO",
    "district": "KRISHNA",
    "latitude": "16.36",
    "longitude": "80.98"
  },
  {
    "stateName": "ANDHRA PRADESH",
    "circleName": "Andhra Pradesh Circle",
    "regionName": "Vijayawada Region",
    "divisionName": "Gudivada Division",
    "officeName": "Nandigamalanka B.O",
    "pinCode": "521326",
    "officeType": "BO",
    "district": "Eluru",
    "latitude": "16.57",
    "longitude": "81.13"
  },
  {
    "stateName": "ANDHRA PRADESH",
    "circleName": "Andhra Pradesh Circle",
    "regionName": "Vijayawada Region",
    "divisionName": "Gudivada Division",
    "officeName": "Hanumanthunigudem B.O",
    "pinCode": "521202",
    "officeType": "BO",
    "district": "Eluru",
    "latitude": "16.86",
    "longitude": "80.84"
  },
  {
    "stateName": "ANDHRA PRADESH",
    "circleName": "Andhra Pradesh Circle",
    "regionName": "Vijayawada Region",
    "divisionName": "Gudivada Division",
    "officeName": "Ravicherla B.O",
    "pinCode": "521202",
    "officeType": "BO",
    "district": "Eluru",
    "latitude": "16.74",
    "longitude": "80.83"
  },
  {
    "stateName": "ANDHRA PRADESH",
    "circleName": "Andhra Pradesh Circle",
    "regionName": "Vijayawada Region",
    "divisionName": "Gudivada Division",
    "officeName": "Annavaram B.O",
    "pinCode": "521202",
    "officeType": "BO",
    "district": "Eluru",
    "latitude": "16.784728",
    "longitude": "80.849867"
  },
  {
    "stateName": "ANDHRA PRADESH",
    "circleName": "Andhra Pradesh Circle",
    "regionName": "Vijayawada Region",
    "divisionName": "Gudivada Division",
    "officeName": "Kothapalli B.O",
    "pinCode": "521111",
    "officeType": "BO",
    "district": "KRISHNA",
    "latitude": "16.72",
    "longitude": "80.94"
  },
  {
    "stateName": "ANDHRA PRADESH",
    "circleName": "Andhra Pradesh Circle",
    "regionName": "Vijayawada Region",
    "divisionName": "Gudivada Division",
    "officeName": "Perikeedu Bridge B.O",
    "pinCode": "521105",
    "officeType": "BO",
    "district": "KRISHNA",
    "latitude": "16.61",
    "longitude": "80.97"
  },
  {
    "stateName": "ANDHRA PRADESH",
    "circleName": "Andhra Pradesh Circle",
    "regionName": "Vijayawada Region",
    "divisionName": "Gudivada Division",
    "officeName": "Nandamuru B.O",
    "pinCode": "521311",
    "officeType": "BO",
    "district": "Eluru",
    "latitude": "16.45",
    "longitude": "80.86"
  },
  {
    "stateName": "ANDHRA PRADESH",
    "circleName": "Andhra Pradesh Circle",
    "regionName": "Vijayawada Region",
    "divisionName": "Gudivada Division",
    "officeName": "Chintalavalli B.O",
    "pinCode": "521207",
    "officeType": "BO",
    "district": "Eluru",
    "latitude": "16.84",
    "longitude": "80.92"
  },
  {
    "stateName": "ANDHRA PRADESH",
    "circleName": "Andhra Pradesh Circle",
    "regionName": "Vijayawada Region",
    "divisionName": "Gudivada Division",
    "officeName": "Katrenipadu B.O",
    "pinCode": "521207",
    "officeType": "BO",
    "district": "Eluru",
    "latitude": "16.79",
    "longitude": "80.95"
  },
  {
    "stateName": "ANDHRA PRADESH",
    "circleName": "Andhra Pradesh Circle",
    "regionName": "Vijayawada Region",
    "divisionName": "Gudivada Division",
    "officeName": "Mukkollupadu B.O",
    "pinCode": "521207",
    "officeType": "BO",
    "district": "Eluru",
    "latitude": "16.84",
    "longitude": "80.87"
  },
  {
    "stateName": "ANDHRA PRADESH",
    "circleName": "Andhra Pradesh Circle",
    "regionName": "Vijayawada Region",
    "divisionName": "Gudivada Division",
    "officeName": "Pothureddipalli B.O",
    "pinCode": "521207",
    "officeType": "BO",
    "district": "Eluru",
    "latitude": "16.81",
    "longitude": "80.87"
  },
  {
    "stateName": "ANDHRA PRADESH",
    "circleName": "Andhra Pradesh Circle",
    "regionName": "Vijayawada Region",
    "divisionName": "Gudivada Division",
    "officeName": "Chittapur B.O",
    "pinCode": "521213",
    "officeType": "BO",
    "district": "Eluru",
    "latitude": "16.93",
    "longitude": "80.87"
  },
  {
    "stateName": "ANDHRA PRADESH",
    "circleName": "Andhra Pradesh Circle",
    "regionName": "Vijayawada Region",
    "divisionName": "Gudivada Division",
    "officeName": "Digavalli B.O",
    "pinCode": "521213",
    "officeType": "BO",
    "district": "Eluru",
    "latitude": "16.87",
    "longitude": "80.85"
  },
  {
    "stateName": "ANDHRA PRADESH",
    "circleName": "Andhra Pradesh Circle",
    "regionName": "Vijayawada Region",
    "divisionName": "Gudivada Division",
    "officeName": "Chandrupatla B.O",
    "pinCode": "521215",
    "officeType": "BO",
    "district": "NTR",
    "latitude": "16.97",
    "longitude": "80.76"
  },
  {
    "stateName": "ANDHRA PRADESH",
    "circleName": "Andhra Pradesh Circle",
    "regionName": "Vijayawada Region",
    "divisionName": "Vijayawada Division",
    "officeName": "Gullapudi B.O",
    "pinCode": "521403",
    "officeType": "BO",
    "district": "NTR",
    "latitude": "17.050434",
    "longitude": "80.504368"
  },
  {
    "stateName": "ANDHRA PRADESH",
    "circleName": "Andhra Pradesh Circle",
    "regionName": "Vijayawada Region",
    "divisionName": "Vijayawada Division",
    "officeName": "Konijerla B.O",
    "pinCode": "521401",
    "officeType": "BO",
    "district": "NTR",
    "latitude": "17.046953",
    "longitude": "80.406724"
  },
  {
    "stateName": "ANDHRA PRADESH",
    "circleName": "Andhra Pradesh Circle",
    "regionName": "Vijayawada Region",
    "divisionName": "Vijayawada Division",
    "officeName": "Satyalapadu B.O",
    "pinCode": "521401",
    "officeType": "BO",
    "district": "NTR",
    "latitude": "16.991507",
    "longitude": "80.485773"
  },
  {
    "stateName": "ANDHRA PRADESH",
    "circleName": "Andhra Pradesh Circle",
    "regionName": "Vijayawada Region",
    "divisionName": "Vijayawada Division",
    "officeName": "Vutukuru B.O",
    "pinCode": "521401",
    "officeType": "BO",
    "district": "NTR",
    "latitude": "17.018204",
    "longitude": "80.433577"
  },
  {
    "stateName": "ANDHRA PRADESH",
    "circleName": "Andhra Pradesh Circle",
    "regionName": "Vijayawada Region",
    "divisionName": "Vijayawada Division",
    "officeName": "Lakshmipuram B.O",
    "pinCode": "521235",
    "officeType": "BO",
    "district": "KRISHNA",
    "latitude": "17.050273",
    "longitude": "80.579531"
  },
  {
    "stateName": "ANDHRA PRADESH",
    "circleName": "Andhra Pradesh Circle",
    "regionName": "Vijayawada Region",
    "divisionName": "Vijayawada Division",
    "officeName": "Kodurupadu B.O",
    "pinCode": "521110",
    "officeType": "BO",
    "district": "KRISHNA",
    "latitude": "16.610577",
    "longitude": "80.900139"
  },
  {
    "stateName": "ANDHRA PRADESH",
    "circleName": "Andhra Pradesh Circle",
    "regionName": "Vijayawada Region",
    "divisionName": "Vijayawada Division",
    "officeName": "Remalle B.O",
    "pinCode": "521110",
    "officeType": "BO",
    "district": "KRISHNA",
    "latitude": "16.661708",
    "longitude": "80.914839"
  },
  {
    "stateName": "ANDHRA PRADESH",
    "circleName": "Andhra Pradesh Circle",
    "regionName": "Vijayawada Region",
    "divisionName": "Vijayawada Division",
    "officeName": "Umamaheswarapuram B.O",
    "pinCode": "521110",
    "officeType": "BO",
    "district": "KRISHNA",
    "latitude": "16.0292",
    "longitude": "81.2923"
  },
  {
    "stateName": "ANDHRA PRADESH",
    "circleName": "Andhra Pradesh Circle",
    "regionName": "Vijayawada Region",
    "divisionName": "Gudur Division",
    "officeName": "Nadimpalli B.O",
    "pinCode": "524404",
    "officeType": "BO",
    "district": "Tirupati",
    "latitude": "13.7885",
    "longitude": "79.92179"
  },
  {
    "stateName": "ANDHRA PRADESH",
    "circleName": "Andhra Pradesh Circle",
    "regionName": "Vijayawada Region",
    "divisionName": "Gudur Division",
    "officeName": "Pigilam B.O",
    "pinCode": "524404",
    "officeType": "BO",
    "district": "Tirupati",
    "latitude": "13.7885",
    "longitude": "79.92179"
  },
  {
    "stateName": "ANDHRA PRADESH",
    "circleName": "Andhra Pradesh Circle",
    "regionName": "Vijayawada Region",
    "divisionName": "Gudur Division",
    "officeName": "Kotitheertham B.O",
    "pinCode": "524341",
    "officeType": "BO",
    "district": "SPSR NELLORE",
    "latitude": "14.5200571",
    "longitude": "79.567355"
  },
  {
    "stateName": "ANDHRA PRADESH",
    "circleName": "Andhra Pradesh Circle",
    "regionName": "Vijayawada Region",
    "divisionName": "Gudur Division",
    "officeName": "Vindur B.O",
    "pinCode": "524406",
    "officeType": "BO",
    "district": "Tirupati",
    "latitude": "14.1627327",
    "longitude": "79.8286178"
  },
  {
    "stateName": "ANDHRA PRADESH",
    "circleName": "Andhra Pradesh Circle",
    "regionName": "Vijayawada Region",
    "divisionName": "Gudur Division",
    "officeName": "Tikkavaram B.O",
    "pinCode": "524412",
    "officeType": "BO",
    "district": "Tirupati",
    "latitude": "14.130912",
    "longitude": "79.8646735"
  },
  {
    "stateName": "ANDHRA PRADESH",
    "circleName": "Andhra Pradesh Circle",
    "regionName": "Vijayawada Region",
    "divisionName": "Gudur Division",
    "officeName": "Tippaguntapalem B.O",
    "pinCode": "524412",
    "officeType": "BO",
    "district": "Tirupati",
    "latitude": "14.10615",
    "longitude": "79.85825"
  },
  {
    "stateName": "ANDHRA PRADESH",
    "circleName": "Andhra Pradesh Circle",
    "regionName": "Vijayawada Region",
    "divisionName": "Gudur Division",
    "officeName": "Varagali B.O",
    "pinCode": "524412",
    "officeType": "BO",
    "district": "Tirupati",
    "latitude": "14.1180223",
    "longitude": "79.8765412"
  },
  {
    "stateName": "ANDHRA PRADESH",
    "circleName": "Andhra Pradesh Circle",
    "regionName": "Vijayawada Region",
    "divisionName": "Gudur Division",
    "officeName": "Lingasamudram B.O",
    "pinCode": "524134",
    "officeType": "BO",
    "district": "Tirupati",
    "latitude": "14.1066953",
    "longitude": "79.5511989"
  },
  {
    "stateName": "ANDHRA PRADESH",
    "circleName": "Andhra Pradesh Circle",
    "regionName": "Vijayawada Region",
    "divisionName": "Gudur Division",
    "officeName": "Velampalli B.O",
    "pinCode": "524134",
    "officeType": "BO",
    "district": "Tirupati",
    "latitude": "14.30214",
    "longitude": "79.67344"
  },
  {
    "stateName": "ANDHRA PRADESH",
    "circleName": "Andhra Pradesh Circle",
    "regionName": "Vijayawada Region",
    "divisionName": "Gudur Division",
    "officeName": "Velikallu B.O",
    "pinCode": "524134",
    "officeType": "BO",
    "district": "Tirupati",
    "latitude": "14.1066913",
    "longitude": "79.5512029"
  },
  {
    "stateName": "ANDHRA PRADESH",
    "circleName": "Andhra Pradesh Circle",
    "regionName": "Vijayawada Region",
    "divisionName": "Gudur Division",
    "officeName": "Bojjanapalli B.O",
    "pinCode": "524414",
    "officeType": "BO",
    "district": "SPSR NELLORE",
    "latitude": "14.28875",
    "longitude": "79.47109"
  },
  {
    "stateName": "ANDHRA PRADESH",
    "circleName": "Andhra Pradesh Circle",
    "regionName": "Vijayawada Region",
    "divisionName": "Gudur Division",
    "officeName": "Sydadupalli B.O",
    "pinCode": "524414",
    "officeType": "BO",
    "district": "SPSR NELLORE",
    "latitude": "14.1998264",
    "longitude": "79.5336367"
  },
  {
    "stateName": "ANDHRA PRADESH",
    "circleName": "Andhra Pradesh Circle",
    "regionName": "Vijayawada Region",
    "divisionName": "Gudur Division",
    "officeName": "Mannur B.O",
    "pinCode": "524131",
    "officeType": "BO",
    "district": "SPSR NELLORE",
    "latitude": "14.03695",
    "longitude": "79.70175"
  },
  {
    "stateName": "ANDHRA PRADESH",
    "circleName": "Andhra Pradesh Circle",
    "regionName": "Vijayawada Region",
    "divisionName": "Gudur Division",
    "officeName": "Kandra B.O",
    "pinCode": "524131",
    "officeType": "BO",
    "district": "SPSR NELLORE",
    "latitude": "14.056631",
    "longitude": "79.785294"
  },
  {
    "stateName": "ANDHRA PRADESH",
    "circleName": "Andhra Pradesh Circle",
    "regionName": "Vijayawada Region",
    "divisionName": "Gudur Division",
    "officeName": "Kondagunta B.O",
    "pinCode": "524131",
    "officeType": "BO",
    "district": "SPSR NELLORE",
    "latitude": "14.1691",
    "longitude": "79.90065"
  },
  {
    "stateName": "ANDHRA PRADESH",
    "circleName": "Andhra Pradesh Circle",
    "regionName": "Vijayawada Region",
    "divisionName": "Gudur Division",
    "officeName": "Devaravemuru B.O",
    "pinCode": "524409",
    "officeType": "BO",
    "district": "SPSR NELLORE",
    "latitude": "14.179103",
    "longitude": "79.744327"
  },
  {
    "stateName": "ANDHRA PRADESH",
    "circleName": "Andhra Pradesh Circle",
    "regionName": "Vijayawada Region",
    "divisionName": "Gudur Division",
    "officeName": "Duggunta B.O",
    "pinCode": "524409",
    "officeType": "BO",
    "district": "SPSR NELLORE",
    "latitude": "14.179099",
    "longitude": "79.744331"
  },
  {
    "stateName": "ANDHRA PRADESH",
    "circleName": "Andhra Pradesh Circle",
    "regionName": "Vijayawada Region",
    "divisionName": "Gudur Division",
    "officeName": "Inukurthi B.O",
    "pinCode": "524409",
    "officeType": "BO",
    "district": "SPSR NELLORE",
    "latitude": "14.295",
    "longitude": "79.7311"
  },
  {
    "stateName": "ANDHRA PRADESH",
    "circleName": "Andhra Pradesh Circle",
    "regionName": "Vijayawada Region",
    "divisionName": "Gudur Division",
    "officeName": "Talupur B.O",
    "pinCode": "524409",
    "officeType": "BO",
    "district": "SPSR NELLORE",
    "latitude": "14.179098",
    "longitude": "79.744332"
  },
  {
    "stateName": "ANDHRA PRADESH",
    "circleName": "Andhra Pradesh Circle",
    "regionName": "Vijayawada Region",
    "divisionName": "Gudur Division",
    "officeName": "Chintalapalem B.O",
    "pinCode": "524343",
    "officeType": "BO",
    "district": "SPSR NELLORE",
    "latitude": "14.4398",
    "longitude": "79.392"
  },
  {
    "stateName": "ANDHRA PRADESH",
    "circleName": "Andhra Pradesh Circle",
    "regionName": "Vijayawada Region",
    "divisionName": "Gudur Division",
    "officeName": "Chintalatmakur B.O",
    "pinCode": "524343",
    "officeType": "BO",
    "district": "SPSR NELLORE",
    "latitude": "14.4398",
    "longitude": "79.392"
  },
  {
    "stateName": "ANDHRA PRADESH",
    "circleName": "Andhra Pradesh Circle",
    "regionName": "Vijayawada Region",
    "divisionName": "Gudur Division",
    "officeName": "Chipinapi B.O",
    "pinCode": "524343",
    "officeType": "BO",
    "district": "SPSR NELLORE",
    "latitude": "14.4398",
    "longitude": "79.392"
  },
  {
    "stateName": "ANDHRA PRADESH",
    "circleName": "Andhra Pradesh Circle",
    "regionName": "Vijayawada Region",
    "divisionName": "Gudur Division",
    "officeName": "Kanupurpalli B.O",
    "pinCode": "524343",
    "officeType": "BO",
    "district": "SPSR NELLORE",
    "latitude": "14.4398",
    "longitude": "79.392"
  },
  {
    "stateName": "ANDHRA PRADESH",
    "circleName": "Andhra Pradesh Circle",
    "regionName": "Vijayawada Region",
    "divisionName": "Gudur Division",
    "officeName": "Siddavaram B.O",
    "pinCode": "524411",
    "officeType": "BO",
    "district": "Tirupati",
    "latitude": "14.06525",
    "longitude": "80.04415"
  },
  {
    "stateName": "ANDHRA PRADESH",
    "circleName": "Andhra Pradesh Circle",
    "regionName": "Vijayawada Region",
    "divisionName": "Gudur Division",
    "officeName": "Kommalapudi B.O",
    "pinCode": "524405",
    "officeType": "BO",
    "district": "SPSR NELLORE",
    "latitude": "14.215939",
    "longitude": "79.8747159"
  },
  {
    "stateName": "ANDHRA PRADESH",
    "circleName": "Andhra Pradesh Circle",
    "regionName": "Vijayawada Region",
    "divisionName": "Gudur Division",
    "officeName": "Vadlapudi B.O",
    "pinCode": "524405",
    "officeType": "BO",
    "district": "SPSR NELLORE",
    "latitude": "14.215937",
    "longitude": "79.8747179"
  },
  {
    "stateName": "ANDHRA PRADESH",
    "circleName": "Andhra Pradesh Circle",
    "regionName": "Vijayawada Region",
    "divisionName": "Gudur Division",
    "officeName": "Palachur B.O",
    "pinCode": "524421",
    "officeType": "BO",
    "district": "Tirupati",
    "latitude": "14.68215",
    "longitude": "79.81915"
  },
  {
    "stateName": "ANDHRA PRADESH",
    "circleName": "Andhra Pradesh Circle",
    "regionName": "Vijayawada Region",
    "divisionName": "Gudur Division",
    "officeName": "Punnepalli B.O",
    "pinCode": "524421",
    "officeType": "BO",
    "district": "Tirupati",
    "latitude": "14.68215",
    "longitude": "79.81915"
  },
  {
    "stateName": "ANDHRA PRADESH",
    "circleName": "Andhra Pradesh Circle",
    "regionName": "Vijayawada Region",
    "divisionName": "Gudur Division",
    "officeName": "Thimmajikandriga B.O",
    "pinCode": "524421",
    "officeType": "BO",
    "district": "Tirupati",
    "latitude": "14.68215",
    "longitude": "79.81915"
  },
  {
    "stateName": "ANDHRA PRADESH",
    "circleName": "Andhra Pradesh Circle",
    "regionName": "Vijayawada Region",
    "divisionName": "Gudur Division",
    "officeName": "Annamedu B.O",
    "pinCode": "524126",
    "officeType": "BO",
    "district": "SPSR NELLORE",
    "latitude": "14.1691",
    "longitude": "79.85175"
  },
  {
    "stateName": "ANDHRA PRADESH",
    "circleName": "Andhra Pradesh Circle",
    "regionName": "Vijayawada Region",
    "divisionName": "Gudur Division",
    "officeName": "Tirumalammapalem B.O",
    "pinCode": "524323",
    "officeType": "BO",
    "district": "SPSR NELLORE",
    "latitude": "14.3229155",
    "longitude": "79.9234518"
  },
  {
    "stateName": "ANDHRA PRADESH",
    "circleName": "Andhra Pradesh Circle",
    "regionName": "Vijayawada Region",
    "divisionName": "Gudur Division",
    "officeName": "Akkagaripeta B.O",
    "pinCode": "524129",
    "officeType": "BO",
    "district": "Tirupati",
    "latitude": "14.9717",
    "longitude": "79.19965"
  },
  {
    "stateName": "ANDHRA PRADESH",
    "circleName": "Andhra Pradesh Circle",
    "regionName": "Vijayawada Region",
    "divisionName": "Gudur Division",
    "officeName": "Chembedu B.O",
    "pinCode": "524129",
    "officeType": "BO",
    "district": "Tirupati",
    "latitude": "14.9717",
    "longitude": "79.19965"
  },
  {
    "stateName": "ANDHRA PRADESH",
    "circleName": "Andhra Pradesh Circle",
    "regionName": "Vijayawada Region",
    "divisionName": "Gudur Division",
    "officeName": "Chintapudi B.O",
    "pinCode": "524129",
    "officeType": "BO",
    "district": "Tirupati",
    "latitude": "14.9717",
    "longitude": "79.19965"
  },
  {
    "stateName": "ANDHRA PRADESH",
    "circleName": "Andhra Pradesh Circle",
    "regionName": "Vijayawada Region",
    "divisionName": "Gudur Division",
    "officeName": "Kanuparthi B.O",
    "pinCode": "524345",
    "officeType": "BO",
    "district": "SPSR NELLORE",
    "latitude": "14.3841002",
    "longitude": "79.7323967"
  },
  {
    "stateName": "ANDHRA PRADESH",
    "circleName": "Andhra Pradesh Circle",
    "regionName": "Vijayawada Region",
    "divisionName": "Gudur Division",
    "officeName": "Gilakapadu B.O",
    "pinCode": "524408",
    "officeType": "BO",
    "district": "SPSR NELLORE",
    "latitude": "14.1998254",
    "longitude": "79.5336377"
  },
  {
    "stateName": "ANDHRA PRADESH",
    "circleName": "Andhra Pradesh Circle",
    "regionName": "Vijayawada Region",
    "divisionName": "Gudur Division",
    "officeName": "Sanayapalem B.O",
    "pinCode": "524408",
    "officeType": "BO",
    "district": "SPSR NELLORE",
    "latitude": "14.14395",
    "longitude": "79.47978"
  },
  {
    "stateName": "ANDHRA PRADESH",
    "circleName": "Andhra Pradesh Circle",
    "regionName": "Vijayawada Region",
    "divisionName": "Gudur Division",
    "officeName": "Damanellore B.O",
    "pinCode": "524121",
    "officeType": "BO",
    "district": "Tirupati",
    "latitude": "13.7356785",
    "longitude": "79.8849715"
  },
  {
    "stateName": "ANDHRA PRADESH",
    "circleName": "Andhra Pradesh Circle",
    "regionName": "Vijayawada Region",
    "divisionName": "Gudur Division",
    "officeName": "Mannarpolur(Urban Area) B.O",
    "pinCode": "524121",
    "officeType": "BO",
    "district": "Tirupati",
    "latitude": "13.7214646",
    "longitude": "79.9991474"
  },
  {
    "stateName": "ANDHRA PRADESH",
    "circleName": "Andhra Pradesh Circle",
    "regionName": "Vijayawada Region",
    "divisionName": "Gudur Division",
    "officeName": "Uchur B.O",
    "pinCode": "524121",
    "officeType": "BO",
    "district": "Tirupati",
    "latitude": "13.69695",
    "longitude": "80.07856"
  },
  {
    "stateName": "ANDHRA PRADESH",
    "circleName": "Andhra Pradesh Circle",
    "regionName": "Vijayawada Region",
    "divisionName": "Gudur Division",
    "officeName": "Edagali B.O",
    "pinCode": "524321",
    "officeType": "BO",
    "district": "SPSR NELLORE",
    "latitude": "14.2315019",
    "longitude": "79.9696207"
  },
  {
    "stateName": "ANDHRA PRADESH",
    "circleName": "Andhra Pradesh Circle",
    "regionName": "Vijayawada Region",
    "divisionName": "Gudur Division",
    "officeName": "Josephpet B.O",
    "pinCode": "524321",
    "officeType": "BO",
    "district": "SPSR NELLORE",
    "latitude": "14.29505",
    "longitude": "79.94305"
  },
  {
    "stateName": "ANDHRA PRADESH",
    "circleName": "Andhra Pradesh Circle",
    "regionName": "Vijayawada Region",
    "divisionName": "Gudur Division",
    "officeName": "Pudiparthi B.O",
    "pinCode": "524321",
    "officeType": "BO",
    "district": "SPSR NELLORE",
    "latitude": "14.2214289",
    "longitude": "80.0031733"
  },
  {
    "stateName": "ANDHRA PRADESH",
    "circleName": "Andhra Pradesh Circle",
    "regionName": "Vijayawada Region",
    "divisionName": "Gudur Division",
    "officeName": "Gulimcherla B.O",
    "pinCode": "524407",
    "officeType": "BO",
    "district": "SPSR NELLORE",
    "latitude": "14.179102",
    "longitude": "79.744328"
  },
  {
    "stateName": "ANDHRA PRADESH",
    "circleName": "Andhra Pradesh Circle",
    "regionName": "Vijayawada Region",
    "divisionName": "Gudur Division",
    "officeName": "Lingasamudram B.O",
    "pinCode": "524407",
    "officeType": "BO",
    "district": "SPSR NELLORE",
    "latitude": "14.1066953",
    "longitude": "79.5511989"
  },
  {
    "stateName": "ANDHRA PRADESH",
    "circleName": "Andhra Pradesh Circle",
    "regionName": "Vijayawada Region",
    "divisionName": "Gudur Division",
    "officeName": "Pokkandala B.O",
    "pinCode": "524407",
    "officeType": "BO",
    "district": "SPSR NELLORE",
    "latitude": "14.13135",
    "longitude": "79.67245"
  },
  {
    "stateName": "ANDHRA PRADESH",
    "circleName": "Andhra Pradesh Circle",
    "regionName": "Vijayawada Region",
    "divisionName": "Gudur Division",
    "officeName": "Vemulachedu B.O",
    "pinCode": "524407",
    "officeType": "BO",
    "district": "SPSR NELLORE",
    "latitude": "14.13135",
    "longitude": "79.67245"
  },
  {
    "stateName": "ANDHRA PRADESH",
    "circleName": "Andhra Pradesh Circle",
    "regionName": "Vijayawada Region",
    "divisionName": "Gudur Division",
    "officeName": "Ramapuram B.O",
    "pinCode": "524401",
    "officeType": "BO",
    "district": "Tirupati",
    "latitude": "14.5485615",
    "longitude": "79.9381487"
  },
  {
    "stateName": "ANDHRA PRADESH",
    "circleName": "Andhra Pradesh Circle",
    "regionName": "Vijayawada Region",
    "divisionName": "Gudur Division",
    "officeName": "Balireddypalem B.O",
    "pinCode": "524415",
    "officeType": "BO",
    "district": "Tirupati",
    "latitude": "14.0025511",
    "longitude": "80.0709399"
  },
  {
    "stateName": "ANDHRA PRADESH",
    "circleName": "Andhra Pradesh Circle",
    "regionName": "Vijayawada Region",
    "divisionName": "Gudur Division",
    "officeName": "Chowtapalem B.O",
    "pinCode": "524320",
    "officeType": "BO",
    "district": "SPSR NELLORE",
    "latitude": "14.3229105",
    "longitude": "79.9234568"
  },
  {
    "stateName": "ANDHRA PRADESH",
    "circleName": "Andhra Pradesh Circle",
    "regionName": "Vijayawada Region",
    "divisionName": "Gudur Division",
    "officeName": "Guruvindapudi B.O",
    "pinCode": "524320",
    "officeType": "BO",
    "district": "SPSR NELLORE",
    "latitude": "14.30214",
    "longitude": "79.67344"
  },
  {
    "stateName": "ANDHRA PRADESH",
    "circleName": "Andhra Pradesh Circle",
    "regionName": "Vijayawada Region",
    "divisionName": "Gudur Division",
    "officeName": "Chinnapareddypalli B.O",
    "pinCode": "524132",
    "officeType": "BO",
    "district": "Tirupati",
    "latitude": "13.955978",
    "longitude": "79.581182"
  },
  {
    "stateName": "ANDHRA PRADESH",
    "circleName": "Andhra Pradesh Circle",
    "regionName": "Vijayawada Region",
    "divisionName": "Gudur Division",
    "officeName": "Chintagunta B.O",
    "pinCode": "524132",
    "officeType": "BO",
    "district": "Tirupati",
    "latitude": "13.955971",
    "longitude": "79.581189"
  },
  {
    "stateName": "ANDHRA PRADESH",
    "circleName": "Andhra Pradesh Circle",
    "regionName": "Vijayawada Region",
    "divisionName": "Gudur Division",
    "officeName": "Telugugangaproject B.O",
    "pinCode": "524132",
    "officeType": "BO",
    "district": "Tirupati",
    "latitude": "13.99224",
    "longitude": "79.52305"
  },
  {
    "stateName": "ANDHRA PRADESH",
    "circleName": "Andhra Pradesh Circle",
    "regionName": "Vijayawada Region",
    "divisionName": "Gudur Division",
    "officeName": "Yathalur B.O",
    "pinCode": "524132",
    "officeType": "BO",
    "district": "Tirupati",
    "latitude": "13.99224",
    "longitude": "79.52305"
  },
  {
    "stateName": "ANDHRA PRADESH",
    "circleName": "Andhra Pradesh Circle",
    "regionName": "Vijayawada Region",
    "divisionName": "Gudur Division",
    "officeName": "Mettu B.O",
    "pinCode": "524413",
    "officeType": "BO",
    "district": "Tirupati",
    "latitude": "14.0025421",
    "longitude": "80.0709489"
  },
  {
    "stateName": "ANDHRA PRADESH",
    "circleName": "Andhra Pradesh Circle",
    "regionName": "Vijayawada Region",
    "divisionName": "Gudur Division",
    "officeName": "Tinnelapudi B.O",
    "pinCode": "524413",
    "officeType": "BO",
    "district": "Tirupati",
    "latitude": "14.0322414",
    "longitude": "80.0297806"
  },
  {
    "stateName": "ANDHRA PRADESH",
    "circleName": "Andhra Pradesh Circle",
    "regionName": "Vijayawada Region",
    "divisionName": "Gudur Division",
    "officeName": "Kandamur B.O",
    "pinCode": "524309",
    "officeType": "BO",
    "district": "SPSR NELLORE",
    "latitude": "14.3840982",
    "longitude": "79.7323987"
  },
  {
    "stateName": "ANDHRA PRADESH",
    "circleName": "Andhra Pradesh Circle",
    "regionName": "Vijayawada Region",
    "divisionName": "Gudur Division",
    "officeName": "Pathapadu B.O",
    "pinCode": "524309",
    "officeType": "BO",
    "district": "SPSR NELLORE",
    "latitude": "14.4790577",
    "longitude": "79.6879556"
  },
  {
    "stateName": "ANDHRA PRADESH",
    "circleName": "Andhra Pradesh Circle",
    "regionName": "Vijayawada Region",
    "divisionName": "Gudur Division",
    "officeName": "Surayapalem B.O",
    "pinCode": "524309",
    "officeType": "BO",
    "district": "SPSR NELLORE",
    "latitude": "14.3841012",
    "longitude": "79.7323957"
  },
  {
    "stateName": "ANDHRA PRADESH",
    "circleName": "Andhra Pradesh Circle",
    "regionName": "Vijayawada Region",
    "divisionName": "Gudur Division",
    "officeName": "Bhatlakanupur B.O",
    "pinCode": "524402",
    "officeType": "BO",
    "district": "SPSR NELLORE",
    "latitude": "14.15335",
    "longitude": "79.86805"
  },
  {
    "stateName": "ANDHRA PRADESH",
    "circleName": "Andhra Pradesh Circle",
    "regionName": "Vijayawada Region",
    "divisionName": "Gudur Division",
    "officeName": "Chilamanchenu B.O",
    "pinCode": "524402",
    "officeType": "BO",
    "district": "SPSR NELLORE",
    "latitude": "14.15335",
    "longitude": "79.86805"
  },
  {
    "stateName": "ANDHRA PRADESH",
    "circleName": "Andhra Pradesh Circle",
    "regionName": "Vijayawada Region",
    "divisionName": "Gudur Division",
    "officeName": "Kurugonda B.O",
    "pinCode": "524402",
    "officeType": "BO",
    "district": "SPSR NELLORE",
    "latitude": "14.0115035",
    "longitude": "79.9409465"
  },
  {
    "stateName": "ANDHRA PRADESH",
    "circleName": "Andhra Pradesh Circle",
    "regionName": "Vijayawada Region",
    "divisionName": "Gudur Division",
    "officeName": "Vojilirajupalem B.O",
    "pinCode": "524402",
    "officeType": "BO",
    "district": "SPSR NELLORE",
    "latitude": "14.15335",
    "longitude": "79.86805"
  },
  {
    "stateName": "ANDHRA PRADESH",
    "circleName": "Andhra Pradesh Circle",
    "regionName": "Vijayawada Region",
    "divisionName": "Gudur Division",
    "officeName": "Aravapalem B.O",
    "pinCode": "524127",
    "officeType": "BO",
    "district": "SPSR NELLORE",
    "latitude": "13.90712",
    "longitude": "79.894697"
  },
  {
    "stateName": "ANDHRA PRADESH",
    "circleName": "Andhra Pradesh Circle",
    "regionName": "Vijayawada Region",
    "divisionName": "Gudur Division",
    "officeName": "Chittamur B.O",
    "pinCode": "524127",
    "officeType": "BO",
    "district": "Tirupati",
    "latitude": "13.9299",
    "longitude": "80.04415"
  },
  {
    "stateName": "ANDHRA PRADESH",
    "circleName": "Andhra Pradesh Circle",
    "regionName": "Vijayawada Region",
    "divisionName": "Gudur Division",
    "officeName": "Uppalamarthy B.O",
    "pinCode": "524127",
    "officeType": "BO",
    "district": "Tirupati",
    "latitude": "13.9299",
    "longitude": "80.04415"
  },
  {
    "stateName": "ANDHRA PRADESH",
    "circleName": "Andhra Pradesh Circle",
    "regionName": "Vijayawada Region",
    "divisionName": "Guntur Division",
    "officeName": "Gogulamudi B.O",
    "pinCode": "522015",
    "officeType": "BO",
    "district": "GUNTUR",
    "latitude": "16.108116",
    "longitude": "80.362385"
  },
  {
    "stateName": "ANDHRA PRADESH",
    "circleName": "Andhra Pradesh Circle",
    "regionName": "Vijayawada Region",
    "divisionName": "Guntur Division",
    "officeName": "Vangipuram B.O",
    "pinCode": "522015",
    "officeType": "BO",
    "district": "GUNTUR",
    "latitude": "16.13106",
    "longitude": "80.387438"
  },
  {
    "stateName": "ANDHRA PRADESH",
    "circleName": "Andhra Pradesh Circle",
    "regionName": "Vijayawada Region",
    "divisionName": "Guntur Division",
    "officeName": "Ananthavarappadu B.O",
    "pinCode": "522017",
    "officeType": "BO",
    "district": "GUNTUR",
    "latitude": "16.235149",
    "longitude": "80.453512"
  },
  {
    "stateName": "ANDHRA PRADESH",
    "circleName": "Andhra Pradesh Circle",
    "regionName": "Vijayawada Region",
    "divisionName": "Guntur Division",
    "officeName": "Chamallamudi B.O",
    "pinCode": "522017",
    "officeType": "BO",
    "district": "GUNTUR",
    "latitude": "16.213646",
    "longitude": "80.428479"
  },
  {
    "stateName": "ANDHRA PRADESH",
    "circleName": "Andhra Pradesh Circle",
    "regionName": "Vijayawada Region",
    "divisionName": "Guntur Division",
    "officeName": "Kurnuthala B.O",
    "pinCode": "522017",
    "officeType": "BO",
    "district": "GUNTUR",
    "latitude": "16.2805212",
    "longitude": "80.4412982"
  },
  {
    "stateName": "ANDHRA PRADESH",
    "circleName": "Andhra Pradesh Circle",
    "regionName": "Vijayawada Region",
    "divisionName": "Guntur Division",
    "officeName": "Vinjanampadu B.O",
    "pinCode": "522017",
    "officeType": "BO",
    "district": "GUNTUR",
    "latitude": "16.3066645",
    "longitude": "80.4365282"
  },
  {
    "stateName": "ANDHRA PRADESH",
    "circleName": "Andhra Pradesh Circle",
    "regionName": "Vijayawada Region",
    "divisionName": "Guntur Division",
    "officeName": "Ballukanudivari Palem B.O",
    "pinCode": "522112",
    "officeType": "BO",
    "district": "GUNTUR",
    "latitude": "16.066187",
    "longitude": "80.41596"
  },
  {
    "stateName": "ANDHRA PRADESH",
    "circleName": "Andhra Pradesh Circle",
    "regionName": "Vijayawada Region",
    "divisionName": "Guntur Division",
    "officeName": "Garlapadu B.O",
    "pinCode": "522235",
    "officeType": "BO",
    "district": "GUNTUR",
    "latitude": "16.0439946",
    "longitude": "80.3549262"
  },
  {
    "stateName": "ANDHRA PRADESH",
    "circleName": "Andhra Pradesh Circle",
    "regionName": "Vijayawada Region",
    "divisionName": "Guntur Division",
    "officeName": "Katrapadu B.O",
    "pinCode": "522235",
    "officeType": "BO",
    "district": "GUNTUR",
    "latitude": "16.051045",
    "longitude": "80.338021"
  },
  {
    "stateName": "ANDHRA PRADESH",
    "circleName": "Andhra Pradesh Circle",
    "regionName": "Vijayawada Region",
    "divisionName": "Guntur Division",
    "officeName": "Chowdavaram B.O",
    "pinCode": "522019",
    "officeType": "BO",
    "district": "GUNTUR",
    "latitude": "16.244007",
    "longitude": "80.328274"
  },
  {
    "stateName": "ANDHRA PRADESH",
    "circleName": "Andhra Pradesh Circle",
    "regionName": "Vijayawada Region",
    "divisionName": "Guntur Division",
    "officeName": "Koyavaripalem B.O",
    "pinCode": "522019",
    "officeType": "BO",
    "district": "GUNTUR",
    "latitude": "16.211648",
    "longitude": "80.366269"
  },
  {
    "stateName": "ANDHRA PRADESH",
    "circleName": "Andhra Pradesh Circle",
    "regionName": "Vijayawada Region",
    "divisionName": "Guntur Division",
    "officeName": "Pedapalakaluru B.O",
    "pinCode": "522009",
    "officeType": "BO",
    "district": "GUNTUR",
    "latitude": "16.332985",
    "longitude": "80.380479"
  },
  {
    "stateName": "ANDHRA PRADESH",
    "circleName": "Andhra Pradesh Circle",
    "regionName": "Vijayawada Region",
    "divisionName": "Guntur Division",
    "officeName": "Vykuntapuram B.O",
    "pinCode": "522020",
    "officeType": "BO",
    "district": "Palnadu",
    "latitude": "16.567513",
    "longitude": "80.412482"
  },
  {
    "stateName": "ANDHRA PRADESH",
    "circleName": "Andhra Pradesh Circle",
    "regionName": "Vijayawada Region",
    "divisionName": "Guntur Division",
    "officeName": "Neerukonda B.O",
    "pinCode": "522240",
    "officeType": "BO",
    "district": "GUNTUR",
    "latitude": "16.461282",
    "longitude": "80.495216"
  },
  {
    "stateName": "ANDHRA PRADESH",
    "circleName": "Andhra Pradesh Circle",
    "regionName": "Vijayawada Region",
    "divisionName": "Guntur Division",
    "officeName": "Nidamarru B.O",
    "pinCode": "522240",
    "officeType": "BO",
    "district": "GUNTUR",
    "latitude": "16.4309624",
    "longitude": "80.5626428"
  },
  {
    "stateName": "ANDHRA PRADESH",
    "circleName": "Andhra Pradesh Circle",
    "regionName": "Vijayawada Region",
    "divisionName": "Guntur Division",
    "officeName": "Endroy B.O",
    "pinCode": "522016",
    "officeType": "BO",
    "district": "Palnadu",
    "latitude": "16.514058",
    "longitude": "80.378247"
  },
  {
    "stateName": "ANDHRA PRADESH",
    "circleName": "Andhra Pradesh Circle",
    "regionName": "Vijayawada Region",
    "divisionName": "Guntur Division",
    "officeName": "Mothadaka B.O",
    "pinCode": "522016",
    "officeType": "BO",
    "district": "GUNTUR",
    "latitude": "16.470893",
    "longitude": "80.402744"
  },
  {
    "stateName": "ANDHRA PRADESH",
    "circleName": "Andhra Pradesh Circle",
    "regionName": "Vijayawada Region",
    "divisionName": "Guntur Division",
    "officeName": "Kanteru B.O",
    "pinCode": "522508",
    "officeType": "BO",
    "district": "GUNTUR",
    "latitude": "16.391735",
    "longitude": "80.503555"
  },
  {
    "stateName": "ANDHRA PRADESH",
    "circleName": "Andhra Pradesh Circle",
    "regionName": "Vijayawada Region",
    "divisionName": "Guntur Division",
    "officeName": "Gollamudi B.O",
    "pinCode": "522509",
    "officeType": "BO",
    "district": "GUNTUR",
    "latitude": "16.3416",
    "longitude": "80.4728"
  },
  {
    "stateName": "ANDHRA PRADESH",
    "circleName": "Andhra Pradesh Circle",
    "regionName": "Vijayawada Region",
    "divisionName": "Guntur Division",
    "officeName": "Reddypalem B.O",
    "pinCode": "522509",
    "officeType": "BO",
    "district": "GUNTUR",
    "latitude": "16.3402079",
    "longitude": "80.491037"
  },
  {
    "stateName": "ANDHRA PRADESH",
    "circleName": "Andhra Pradesh Circle",
    "regionName": "Vijayawada Region",
    "divisionName": "Guntur Division",
    "officeName": "Venkatakrishnapuram B.O",
    "pinCode": "522509",
    "officeType": "BO",
    "district": "GUNTUR",
    "latitude": "16.300985",
    "longitude": "80.541762"
  },
  {
    "stateName": "ANDHRA PRADESH",
    "circleName": "Andhra Pradesh Circle",
    "regionName": "Vijayawada Region",
    "divisionName": "Guntur Division",
    "officeName": "Atmakuru B.O",
    "pinCode": "522302",
    "officeType": "BO",
    "district": "GUNTUR",
    "latitude": "16.429539",
    "longitude": "80.589867"
  },
  {
    "stateName": "ANDHRA PRADESH",
    "circleName": "Andhra Pradesh Circle",
    "regionName": "Vijayawada Region",
    "divisionName": "Guntur Division",
    "officeName": "Bejathpuram B.O",
    "pinCode": "522018",
    "officeType": "BO",
    "district": "GUNTUR",
    "latitude": "16.433408",
    "longitude": "80.361042"
  },
  {
    "stateName": "ANDHRA PRADESH",
    "circleName": "Andhra Pradesh Circle",
    "regionName": "Vijayawada Region",
    "divisionName": "Guntur Division",
    "officeName": "Penumaka B.O",
    "pinCode": "522501",
    "officeType": "BO",
    "district": "GUNTUR",
    "latitude": "16.482421",
    "longitude": "80.575785"
  },
  {
    "stateName": "ANDHRA PRADESH",
    "circleName": "Andhra Pradesh Circle",
    "regionName": "Vijayawada Region",
    "divisionName": "Guntur Division",
    "officeName": "Ainavolu B.O",
    "pinCode": "522237",
    "officeType": "BO",
    "district": "GUNTUR",
    "latitude": "16.488167",
    "longitude": "80.502448"
  },
  {
    "stateName": "ANDHRA PRADESH",
    "circleName": "Andhra Pradesh Circle",
    "regionName": "Vijayawada Region",
    "divisionName": "Guntur Division",
    "officeName": "Borupalem B.O",
    "pinCode": "522237",
    "officeType": "BO",
    "district": "GUNTUR",
    "latitude": "16.562338",
    "longitude": "80.458379"
  },
  {
    "stateName": "ANDHRA PRADESH",
    "circleName": "Andhra Pradesh Circle",
    "regionName": "Visakhapatnam Region",
    "divisionName": "Rajahmundry Division",
    "officeName": "Forebey Dam Camp B.O",
    "pinCode": "533348",
    "officeType": "BO",
    "district": "Alluri Sitharama Raju",
    "latitude": "17.929636",
    "longitude": "81.799206"
  },
  {
    "stateName": "ANDHRA PRADESH",
    "circleName": "Andhra Pradesh Circle",
    "regionName": "Visakhapatnam Region",
    "divisionName": "Rajahmundry Division",
    "officeName": "Chatti B.O",
    "pinCode": "533347",
    "officeType": "BO",
    "district": "EAST GODAVARI",
    "latitude": "25.885641",
    "longitude": "86.166592"
  },
  {
    "stateName": "ANDHRA PRADESH",
    "circleName": "Andhra Pradesh Circle",
    "regionName": "Visakhapatnam Region",
    "divisionName": "Rajahmundry Division",
    "officeName": "Edurallapalli B.O",
    "pinCode": "533352",
    "officeType": "BO",
    "district": "EAST GODAVARI",
    "latitude": "17.659511",
    "longitude": "81.005063"
  },
  {
    "stateName": "ANDHRA PRADESH",
    "circleName": "Andhra Pradesh Circle",
    "regionName": "Visakhapatnam Region",
    "divisionName": "Rajahmundry Division",
    "officeName": "Kommuru B.O",
    "pinCode": "533347",
    "officeType": "BO",
    "district": "EAST GODAVARI",
    "latitude": "16.652416",
    "longitude": "80.871679"
  },
  {
    "stateName": "ANDHRA PRADESH",
    "circleName": "Andhra Pradesh Circle",
    "regionName": "Visakhapatnam Region",
    "divisionName": "Rajahmundry Division",
    "officeName": "PITCHUKULAPADU B.O.",
    "pinCode": "533352",
    "officeType": "BO",
    "district": "EAST GODAVARI",
    "latitude": "17.708733",
    "longitude": "80.933923"
  },
  {
    "stateName": "ANDHRA PRADESH",
    "circleName": "Andhra Pradesh Circle",
    "regionName": "Visakhapatnam Region",
    "divisionName": "Rajahmundry Division",
    "officeName": "KANNAIGUDEM B.O.",
    "pinCode": "533352",
    "officeType": "BO",
    "district": "EAST GODAVARI",
    "latitude": "17.357707",
    "longitude": "81.229853"
  },
  {
    "stateName": "ANDHRA PRADESH",
    "circleName": "Andhra Pradesh Circle",
    "regionName": "Visakhapatnam Region",
    "divisionName": "Rajahmundry Division",
    "officeName": "RAMAGOPALAPURAM B.O.",
    "pinCode": "533352",
    "officeType": "BO",
    "district": "EAST GODAVARI",
    "latitude": "17.691676",
    "longitude": "81.028538"
  },
  {
    "stateName": "ANDHRA PRADESH",
    "circleName": "Andhra Pradesh Circle",
    "regionName": "Visakhapatnam Region",
    "divisionName": "Rajahmundry Division",
    "officeName": "Yatapaka B.O",
    "pinCode": "533352",
    "officeType": "BO",
    "district": "EAST GODAVARI",
    "latitude": "NA",
    "longitude": "NA"
  },
  {
    "stateName": "ANDHRA PRADESH",
    "circleName": "Andhra Pradesh Circle",
    "regionName": "Visakhapatnam Region",
    "divisionName": "Rajahmundry Division",
    "officeName": "Jeediguppa B.O",
    "pinCode": "533349",
    "officeType": "BO",
    "district": "Alluri Sitharama Raju",
    "latitude": "NA",
    "longitude": "NA"
  },
  {
    "stateName": "ANDHRA PRADESH",
    "circleName": "Andhra Pradesh Circle",
    "regionName": "Vijayawada Region",
    "divisionName": "Eluru Division",
    "officeName": "Katkuru",
    "pinCode": "534444",
    "officeType": "BO",
    "district": "Eluru",
    "latitude": "17.533822",
    "longitude": "81.1737824"
  },
  {
    "stateName": "ANDHRA PRADESH",
    "circleName": "Andhra Pradesh Circle",
    "regionName": "Visakhapatnam Region",
    "divisionName": "Rajahmundry Division",
    "officeName": "Vaddigudem B.O",
    "pinCode": "533349",
    "officeType": "BO",
    "district": "Alluri Sitharama Raju",
    "latitude": "NA",
    "longitude": "NA"
  },
  {
    "stateName": "ANDHRA PRADESH",
    "circleName": "Andhra Pradesh Circle",
    "regionName": "Vijayawada Region",
    "divisionName": "Machilipatnam Division",
    "officeName": "Pittalalanka B.O",
    "pinCode": "521122",
    "officeType": "BO",
    "district": "KRISHNA",
    "latitude": "NA",
    "longitude": "NA"
  },
  {
    "stateName": "ANDHRA PRADESH",
    "circleName": "Andhra Pradesh Circle",
    "regionName": "Vijayawada Region",
    "divisionName": "Machilipatnam Division",
    "officeName": "Viswanadhapalli B.O",
    "pinCode": "521122",
    "officeType": "BO",
    "district": "KRISHNA",
    "latitude": "NA",
    "longitude": "NA"
  },
  {
    "stateName": "ANDHRA PRADESH",
    "circleName": "Andhra Pradesh Circle",
    "regionName": "Vijayawada Region",
    "divisionName": "Machilipatnam Division",
    "officeName": "Kokanarayanapalem B.O",
    "pinCode": "521149",
    "officeType": "BO",
    "district": "KRISHNA",
    "latitude": "NA",
    "longitude": "NA"
  },
  {
    "stateName": "ANDHRA PRADESH",
    "circleName": "Andhra Pradesh Circle",
    "regionName": "Vijayawada Region",
    "divisionName": "Machilipatnam Division",
    "officeName": "Eddanapudi B.O",
    "pinCode": "521136",
    "officeType": "BO",
    "district": "KRISHNA",
    "latitude": "NA",
    "longitude": "NA"
  },
  {
    "stateName": "ANDHRA PRADESH",
    "circleName": "Andhra Pradesh Circle",
    "regionName": "Vijayawada Region",
    "divisionName": "Machilipatnam Division",
    "officeName": "Kanchakoduru B.O",
    "pinCode": "521150",
    "officeType": "BO",
    "district": "KRISHNA",
    "latitude": "NA",
    "longitude": "NA"
  },
  {
    "stateName": "ANDHRA PRADESH",
    "circleName": "Andhra Pradesh Circle",
    "regionName": "Vijayawada Region",
    "divisionName": "Machilipatnam Division",
    "officeName": "Maddipatla B.O",
    "pinCode": "521150",
    "officeType": "BO",
    "district": "KRISHNA",
    "latitude": "NA",
    "longitude": "NA"
  },
  {
    "stateName": "ANDHRA PRADESH",
    "circleName": "Andhra Pradesh Circle",
    "regionName": "Vijayawada Region",
    "divisionName": "Machilipatnam Division",
    "officeName": "Chinakallepalli B.O",
    "pinCode": "521132",
    "officeType": "BO",
    "district": "KRISHNA",
    "latitude": "NA",
    "longitude": "NA"
  },
  {
    "stateName": "ANDHRA PRADESH",
    "circleName": "Andhra Pradesh Circle",
    "regionName": "Vijayawada Region",
    "divisionName": "Machilipatnam Division",
    "officeName": "Papanasanam B.O",
    "pinCode": "521132",
    "officeType": "BO",
    "district": "KRISHNA",
    "latitude": "NA",
    "longitude": "NA"
  },
  {
    "stateName": "ANDHRA PRADESH",
    "circleName": "Andhra Pradesh Circle",
    "regionName": "Vijayawada Region",
    "divisionName": "Machilipatnam Division",
    "officeName": "Daliparru B.O",
    "pinCode": "521131",
    "officeType": "BO",
    "district": "KRISHNA",
    "latitude": "NA",
    "longitude": "NA"
  },
  {
    "stateName": "ANDHRA PRADESH",
    "circleName": "Andhra Pradesh Circle",
    "regionName": "Vijayawada Region",
    "divisionName": "Machilipatnam Division",
    "officeName": "Chiruvolulanka B.O",
    "pinCode": "521125",
    "officeType": "BO",
    "district": "KRISHNA",
    "latitude": "NA",
    "longitude": "NA"
  },
  {
    "stateName": "ANDHRA PRADESH",
    "circleName": "Andhra Pradesh Circle",
    "regionName": "Vijayawada Region",
    "divisionName": "Machilipatnam Division",
    "officeName": "Pedaprolu B.O",
    "pinCode": "521125",
    "officeType": "BO",
    "district": "KRISHNA",
    "latitude": "NA",
    "longitude": "NA"
  },
  {
    "stateName": "ANDHRA PRADESH",
    "circleName": "Andhra Pradesh Circle",
    "regionName": "Vijayawada Region",
    "divisionName": "Machilipatnam Division",
    "officeName": "Gudapadu B.O",
    "pinCode": "521135",
    "officeType": "BO",
    "district": "KRISHNA",
    "latitude": "NA",
    "longitude": "NA"
  },
  {
    "stateName": "ANDHRA PRADESH",
    "circleName": "Andhra Pradesh Circle",
    "regionName": "Vijayawada Region",
    "divisionName": "Machilipatnam Division",
    "officeName": "Chodavaram B.O",
    "pinCode": "521120",
    "officeType": "BO",
    "district": "KRISHNA",
    "latitude": "NA",
    "longitude": "NA"
  },
  {
    "stateName": "ANDHRA PRADESH",
    "circleName": "Andhra Pradesh Circle",
    "regionName": "Vijayawada Region",
    "divisionName": "Machilipatnam Division",
    "officeName": "Etimogga B.O",
    "pinCode": "521120",
    "officeType": "BO",
    "district": "KRISHNA",
    "latitude": "NA",
    "longitude": "NA"
  },
  {
    "stateName": "ANDHRA PRADESH",
    "circleName": "Andhra Pradesh Circle",
    "regionName": "Vijayawada Region",
    "divisionName": "Machilipatnam Division",
    "officeName": "Ganapeswaram B.O",
    "pinCode": "521120",
    "officeType": "BO",
    "district": "KRISHNA",
    "latitude": "NA",
    "longitude": "NA"
  },
  {
    "stateName": "ANDHRA PRADESH",
    "circleName": "Andhra Pradesh Circle",
    "regionName": "Vijayawada Region",
    "divisionName": "Machilipatnam Division",
    "officeName": "Kammanamoulu B.O",
    "pinCode": "521120",
    "officeType": "BO",
    "district": "KRISHNA",
    "latitude": "NA",
    "longitude": "NA"
  },
  {
    "stateName": "ANDHRA PRADESH",
    "circleName": "Andhra Pradesh Circle",
    "regionName": "Vijayawada Region",
    "divisionName": "Machilipatnam Division",
    "officeName": "Nangegadda B.O",
    "pinCode": "521120",
    "officeType": "BO",
    "district": "KRISHNA",
    "latitude": "NA",
    "longitude": "NA"
  },
  {
    "stateName": "ANDHRA PRADESH",
    "circleName": "Andhra Pradesh Circle",
    "regionName": "Vijayawada Region",
    "divisionName": "Machilipatnam Division",
    "officeName": "T.Kothapalem B.O",
    "pinCode": "521120",
    "officeType": "BO",
    "district": "KRISHNA",
    "latitude": "NA",
    "longitude": "NA"
  },
  {
    "stateName": "ANDHRA PRADESH",
    "circleName": "Andhra Pradesh Circle",
    "regionName": "Vijayawada Region",
    "divisionName": "Machilipatnam Division",
    "officeName": "Nimmaluru B.O",
    "pinCode": "521158",
    "officeType": "BO",
    "district": "KRISHNA",
    "latitude": "NA",
    "longitude": "NA"
  },
  {
    "stateName": "ANDHRA PRADESH",
    "circleName": "Andhra Pradesh Circle",
    "regionName": "Vijayawada Region",
    "divisionName": "Machilipatnam Division",
    "officeName": "Pasumarru B.O",
    "pinCode": "521157",
    "officeType": "BO",
    "district": "KRISHNA",
    "latitude": "NA",
    "longitude": "NA"
  },
  {
    "stateName": "ANDHRA PRADESH",
    "circleName": "Andhra Pradesh Circle",
    "regionName": "Vijayawada Region",
    "divisionName": "Machilipatnam Division",
    "officeName": "Bhatlapenumarru B.O",
    "pinCode": "521138",
    "officeType": "BO",
    "district": "KRISHNA",
    "latitude": "NA",
    "longitude": "NA"
  },
  {
    "stateName": "ANDHRA PRADESH",
    "circleName": "Andhra Pradesh Circle",
    "regionName": "Vijayawada Region",
    "divisionName": "Machilipatnam Division",
    "officeName": "Mallavolu B.O",
    "pinCode": "521162",
    "officeType": "BO",
    "district": "KRISHNA",
    "latitude": "NA",
    "longitude": "NA"
  },
  {
    "stateName": "ANDHRA PRADESH",
    "circleName": "Andhra Pradesh Circle",
    "regionName": "Vijayawada Region",
    "divisionName": "Machilipatnam Division",
    "officeName": "Mekavanipalem B.O",
    "pinCode": "521002",
    "officeType": "BO",
    "district": "KRISHNA",
    "latitude": "NA",
    "longitude": "NA"
  },
  {
    "stateName": "ANDHRA PRADESH",
    "circleName": "Andhra Pradesh Circle",
    "regionName": "Vijayawada Region",
    "divisionName": "Machilipatnam Division",
    "officeName": "Pothepalli B.O",
    "pinCode": "521002",
    "officeType": "BO",
    "district": "KRISHNA",
    "latitude": "NA",
    "longitude": "NA"
  },
  {
    "stateName": "ANDHRA PRADESH",
    "circleName": "Andhra Pradesh Circle",
    "regionName": "Vijayawada Region",
    "divisionName": "Machilipatnam Division",
    "officeName": "Yadlavanipalem B.O",
    "pinCode": "521002",
    "officeType": "BO",
    "district": "KRISHNA",
    "latitude": "NA",
    "longitude": "NA"
  },
  {
    "stateName": "ANDHRA PRADESH",
    "circleName": "Andhra Pradesh Circle",
    "regionName": "Vijayawada Region",
    "divisionName": "Machilipatnam Division",
    "officeName": "Kammavaricheruvu B.O",
    "pinCode": "521003",
    "officeType": "BO",
    "district": "KRISHNA",
    "latitude": "NA",
    "longitude": "NA"
  },
  {
    "stateName": "ANDHRA PRADESH",
    "circleName": "Andhra Pradesh Circle",
    "regionName": "Vijayawada Region",
    "divisionName": "Machilipatnam Division",
    "officeName": "Tummalacheruvu B.O",
    "pinCode": "521003",
    "officeType": "BO",
    "district": "KRISHNA",
    "latitude": "NA",
    "longitude": "NA"
  },
  {
    "stateName": "ANDHRA PRADESH",
    "circleName": "Andhra Pradesh Circle",
    "regionName": "Vijayawada Region",
    "divisionName": "Machilipatnam Division",
    "officeName": "Venturumilli B.O",
    "pinCode": "521332",
    "officeType": "BO",
    "district": "KRISHNA",
    "latitude": "NA",
    "longitude": "NA"
  },
  {
    "stateName": "ANDHRA PRADESH",
    "circleName": "Andhra Pradesh Circle",
    "regionName": "Vijayawada Region",
    "divisionName": "Machilipatnam Division",
    "officeName": "Penjendra B.O",
    "pinCode": "521356",
    "officeType": "BO",
    "district": "KRISHNA",
    "latitude": "NA",
    "longitude": "NA"
  },
  {
    "stateName": "ANDHRA PRADESH",
    "circleName": "Andhra Pradesh Circle",
    "regionName": "Vijayawada Region",
    "divisionName": "Machilipatnam Division",
    "officeName": "Kanchadam B.O",
    "pinCode": "521369",
    "officeType": "BO",
    "district": "KRISHNA",
    "latitude": "NA",
    "longitude": "NA"
  },
  {
    "stateName": "ANDHRA PRADESH",
    "circleName": "Andhra Pradesh Circle",
    "regionName": "Vijayawada Region",
    "divisionName": "Machilipatnam Division",
    "officeName": "Akulamannadu B.O",
    "pinCode": "521366",
    "officeType": "BO",
    "district": "KRISHNA",
    "latitude": "NA",
    "longitude": "NA"
  },
  {
    "stateName": "ANDHRA PRADESH",
    "circleName": "Andhra Pradesh Circle",
    "regionName": "Vijayawada Region",
    "divisionName": "Machilipatnam Division",
    "officeName": "Mutcherla B.O",
    "pinCode": "521366",
    "officeType": "BO",
    "district": "KRISHNA",
    "latitude": "NA",
    "longitude": "NA"
  },
  {
    "stateName": "ANDHRA PRADESH",
    "circleName": "Andhra Pradesh Circle",
    "regionName": "Vijayawada Region",
    "divisionName": "Machilipatnam Division",
    "officeName": "Rudravaram B.O",
    "pinCode": "521004",
    "officeType": "BO",
    "district": "KRISHNA",
    "latitude": "NA",
    "longitude": "NA"
  },
  {
    "stateName": "ANDHRA PRADESH",
    "circleName": "Andhra Pradesh Circle",
    "regionName": "Vijayawada Region",
    "divisionName": "Narasaraopet Division",
    "officeName": "Gandiganumala B.O",
    "pinCode": "522663",
    "officeType": "BO",
    "district": "Palnadu",
    "latitude": "16.295758",
    "longitude": "79.572505"
  },
  {
    "stateName": "ANDHRA PRADESH",
    "circleName": "Andhra Pradesh Circle",
    "regionName": "Vijayawada Region",
    "divisionName": "Narasaraopet Division",
    "officeName": "Mugachintalapalem B.O",
    "pinCode": "522663",
    "officeType": "BO",
    "district": "Palnadu",
    "latitude": "16.158958",
    "longitude": "79.694577"
  },
  {
    "stateName": "ANDHRA PRADESH",
    "circleName": "Andhra Pradesh Circle",
    "regionName": "Vijayawada Region",
    "divisionName": "Narasaraopet Division",
    "officeName": "Annavaram B.O",
    "pinCode": "522616",
    "officeType": "BO",
    "district": "GUNTUR",
    "latitude": "16.087918",
    "longitude": "80.266533"
  },
  {
    "stateName": "ANDHRA PRADESH",
    "circleName": "Andhra Pradesh Circle",
    "regionName": "Vijayawada Region",
    "divisionName": "Narasaraopet Division",
    "officeName": "Pasumarru B.O",
    "pinCode": "522616",
    "officeType": "BO",
    "district": "Palnadu",
    "latitude": "16.069841",
    "longitude": "80.181987"
  },
  {
    "stateName": "ANDHRA PRADESH",
    "circleName": "Andhra Pradesh Circle",
    "regionName": "Vijayawada Region",
    "divisionName": "Narasaraopet Division",
    "officeName": "Dharmavaram B.O",
    "pinCode": "522612",
    "officeType": "BO",
    "district": "Palnadu",
    "latitude": "16.4361",
    "longitude": "79.5526"
  },
  {
    "stateName": "ANDHRA PRADESH",
    "circleName": "Andhra Pradesh Circle",
    "regionName": "Vijayawada Region",
    "divisionName": "Narasaraopet Division",
    "officeName": "Kolagutla B.O",
    "pinCode": "522612",
    "officeType": "BO",
    "district": "Palnadu",
    "latitude": "16.3997",
    "longitude": "79.5072"
  },
  {
    "stateName": "ANDHRA PRADESH",
    "circleName": "Andhra Pradesh Circle",
    "regionName": "Vijayawada Region",
    "divisionName": "Narasaraopet Division",
    "officeName": "Karuchola B.O",
    "pinCode": "522233",
    "officeType": "BO",
    "district": "Palnadu",
    "latitude": "16.1518",
    "longitude": "80.2607"
  },
  {
    "stateName": "ANDHRA PRADESH",
    "circleName": "Andhra Pradesh Circle",
    "regionName": "Vijayawada Region",
    "divisionName": "Narasaraopet Division",
    "officeName": "Unnava B.O",
    "pinCode": "522233",
    "officeType": "BO",
    "district": "Palnadu",
    "latitude": "16.1772",
    "longitude": "80.2762"
  },
  {
    "stateName": "ANDHRA PRADESH",
    "circleName": "Andhra Pradesh Circle",
    "regionName": "Vijayawada Region",
    "divisionName": "Narasaraopet Division",
    "officeName": "Vankayalapadu B.O",
    "pinCode": "522233",
    "officeType": "BO",
    "district": "Palnadu",
    "latitude": "16.1818",
    "longitude": "80.2518"
  },
  {
    "stateName": "ANDHRA PRADESH",
    "circleName": "Andhra Pradesh Circle",
    "regionName": "Vijayawada Region",
    "divisionName": "Narasaraopet Division",
    "officeName": "Sandepudi B.O",
    "pinCode": "522619",
    "officeType": "BO",
    "district": "Palnadu",
    "latitude": "16.0941",
    "longitude": "80.2461"
  },
  {
    "stateName": "ANDHRA PRADESH",
    "circleName": "Andhra Pradesh Circle",
    "regionName": "Vijayawada Region",
    "divisionName": "Narasaraopet Division",
    "officeName": "Veluru B.O",
    "pinCode": "522619",
    "officeType": "BO",
    "district": "Palnadu",
    "latitude": "16.1048",
    "longitude": "80.2095"
  },
  {
    "stateName": "ANDHRA PRADESH",
    "circleName": "Andhra Pradesh Circle",
    "regionName": "Vijayawada Region",
    "divisionName": "Narasaraopet Division",
    "officeName": "Bommarajupalle B.O",
    "pinCode": "522658",
    "officeType": "BO",
    "district": "Palnadu",
    "latitude": "16.2742",
    "longitude": "79.785"
  },
  {
    "stateName": "ANDHRA PRADESH",
    "circleName": "Andhra Pradesh Circle",
    "regionName": "Vijayawada Region",
    "divisionName": "Narasaraopet Division",
    "officeName": "Gundepalle B.O",
    "pinCode": "522658",
    "officeType": "BO",
    "district": "Palnadu",
    "latitude": "16.1738",
    "longitude": "79.8088"
  },
  {
    "stateName": "ANDHRA PRADESH",
    "circleName": "Andhra Pradesh Circle",
    "regionName": "Vijayawada Region",
    "divisionName": "Narasaraopet Division",
    "officeName": "Kondayapalem B.O",
    "pinCode": "522658",
    "officeType": "BO",
    "district": "Palnadu",
    "latitude": "16.1996",
    "longitude": "79.8024"
  },
  {
    "stateName": "ANDHRA PRADESH",
    "circleName": "Andhra Pradesh Circle",
    "regionName": "Vijayawada Region",
    "divisionName": "Narasaraopet Division",
    "officeName": "Udjerla B.O",
    "pinCode": "522658",
    "officeType": "BO",
    "district": "Palnadu",
    "latitude": "16.2193",
    "longitude": "79.7533"
  },
  {
    "stateName": "ANDHRA PRADESH",
    "circleName": "Andhra Pradesh Circle",
    "regionName": "Vijayawada Region",
    "divisionName": "Narasaraopet Division",
    "officeName": "Marripalem B.O",
    "pinCode": "522614",
    "officeType": "BO",
    "district": "Palnadu",
    "latitude": "16.351",
    "longitude": "79.6543"
  },
  {
    "stateName": "ANDHRA PRADESH",
    "circleName": "Andhra Pradesh Circle",
    "regionName": "Vijayawada Region",
    "divisionName": "Narasaraopet Division",
    "officeName": "Mellavagu B.O",
    "pinCode": "522614",
    "officeType": "BO",
    "district": "Palnadu",
    "latitude": "16.3455",
    "longitude": "79.7379"
  },
  {
    "stateName": "ANDHRA PRADESH",
    "circleName": "Andhra Pradesh Circle",
    "regionName": "Vijayawada Region",
    "divisionName": "Narasaraopet Division",
    "officeName": "Jayanthi Ramapuram B.O",
    "pinCode": "522614",
    "officeType": "BO",
    "district": "Palnadu",
    "latitude": "16.341",
    "longitude": "79.754"
  },
  {
    "stateName": "ANDHRA PRADESH",
    "circleName": "Andhra Pradesh Circle",
    "regionName": "Vijayawada Region",
    "divisionName": "Narasaraopet Division",
    "officeName": "Rajapeta B.O",
    "pinCode": "522626",
    "officeType": "BO",
    "district": "Palnadu",
    "latitude": "16.089",
    "longitude": "80.1143"
  },
  {
    "stateName": "ANDHRA PRADESH",
    "circleName": "Andhra Pradesh Circle",
    "regionName": "Vijayawada Region",
    "divisionName": "Narasaraopet Division",
    "officeName": "Kunkalagunta B.O",
    "pinCode": "522615",
    "officeType": "BO",
    "district": "Palnadu",
    "latitude": "16.2964",
    "longitude": "79.8858"
  },
  {
    "stateName": "ANDHRA PRADESH",
    "circleName": "Andhra Pradesh Circle",
    "regionName": "Vijayawada Region",
    "divisionName": "Narasaraopet Division",
    "officeName": "Narasingapadu B.O",
    "pinCode": "522615",
    "officeType": "BO",
    "district": "Palnadu",
    "latitude": "16.3946",
    "longitude": "79.9116"
  },
  {
    "stateName": "ANDHRA PRADESH",
    "circleName": "Andhra Pradesh Circle",
    "regionName": "Vijayawada Region",
    "divisionName": "Narasaraopet Division",
    "officeName": "Uppalapadu B.O",
    "pinCode": "522615",
    "officeType": "BO",
    "district": "Palnadu",
    "latitude": "16.3862",
    "longitude": "79.9969"
  },
  {
    "stateName": "ANDHRA PRADESH",
    "circleName": "Andhra Pradesh Circle",
    "regionName": "Vijayawada Region",
    "divisionName": "Narasaraopet Division",
    "officeName": "EDWARDPET BO",
    "pinCode": "522615",
    "officeType": "BO",
    "district": "Palnadu",
    "latitude": "16.333844",
    "longitude": "79.926163"
  },
  {
    "stateName": "ANDHRA PRADESH",
    "circleName": "Andhra Pradesh Circle",
    "regionName": "Vijayawada Region",
    "divisionName": "Narasaraopet Division",
    "officeName": "Mulakaluru B.O",
    "pinCode": "522660",
    "officeType": "BO",
    "district": "Palnadu",
    "latitude": "15.9699",
    "longitude": "79.8358"
  },
  {
    "stateName": "ANDHRA PRADESH",
    "circleName": "Andhra Pradesh Circle",
    "regionName": "Vijayawada Region",
    "divisionName": "Narasaraopet Division",
    "officeName": "Nudurupadu B.O",
    "pinCode": "522529",
    "officeType": "BO",
    "district": "GUNTUR",
    "latitude": "16.2797",
    "longitude": "80.2095"
  },
  {
    "stateName": "ANDHRA PRADESH",
    "circleName": "Andhra Pradesh Circle",
    "regionName": "Vijayawada Region",
    "divisionName": "Narasaraopet Division",
    "officeName": "Singhiskhanpet B.O",
    "pinCode": "522529",
    "officeType": "BO",
    "district": "Palnadu",
    "latitude": "16.2398",
    "longitude": "80.2461"
  },
  {
    "stateName": "ANDHRA PRADESH",
    "circleName": "Andhra Pradesh Circle",
    "regionName": "Vijayawada Region",
    "divisionName": "Narasaraopet Division",
    "officeName": "Yerraguntlapadu B.O",
    "pinCode": "522529",
    "officeType": "BO",
    "district": "GUNTUR",
    "latitude": "16.3376",
    "longitude": "80.1898"
  },
  {
    "stateName": "ANDHRA PRADESH",
    "circleName": "Andhra Pradesh Circle",
    "regionName": "Vijayawada Region",
    "divisionName": "Narasaraopet Division",
    "officeName": "Annavaram B.O",
    "pinCode": "522603",
    "officeType": "BO",
    "district": "Palnadu",
    "latitude": "16.2233",
    "longitude": "79.9719"
  },
  {
    "stateName": "ANDHRA PRADESH",
    "circleName": "Andhra Pradesh Circle",
    "regionName": "Vijayawada Region",
    "divisionName": "Narasaraopet Division",
    "officeName": "Chagallu B.O",
    "pinCode": "522603",
    "officeType": "BO",
    "district": "Palnadu",
    "latitude": "16.3715",
    "longitude": "80.0275"
  },
  {
    "stateName": "ANDHRA PRADESH",
    "circleName": "Andhra Pradesh Circle",
    "regionName": "Vijayawada Region",
    "divisionName": "Narasaraopet Division",
    "officeName": "Lingamguntla  Agraharam B.O",
    "pinCode": "522603",
    "officeType": "BO",
    "district": "Palnadu",
    "latitude": "16.2214",
    "longitude": "80.0314"
  },
  {
    "stateName": "ANDHRA PRADESH",
    "circleName": "Andhra Pradesh Circle",
    "regionName": "Vijayawada Region",
    "divisionName": "Narasaraopet Division",
    "officeName": "Petlurivaripalem B.O",
    "pinCode": "522603",
    "officeType": "BO",
    "district": "Palnadu",
    "latitude": "16.1655",
    "longitude": "80.0047"
  },
  {
    "stateName": "ANDHRA PRADESH",
    "circleName": "Andhra Pradesh Circle",
    "regionName": "Vijayawada Region",
    "divisionName": "Narasaraopet Division",
    "officeName": "Reddipalem B.O",
    "pinCode": "522603",
    "officeType": "BO",
    "district": "Palnadu",
    "latitude": "16.27",
    "longitude": "80.08"
  },
  {
    "stateName": "ANDHRA PRADESH",
    "circleName": "Andhra Pradesh Circle",
    "regionName": "Vijayawada Region",
    "divisionName": "Narasaraopet Division",
    "officeName": "Arvapalli B.O",
    "pinCode": "522603",
    "officeType": "BO",
    "district": "Palnadu",
    "latitude": "16.181",
    "longitude": "79.991"
  },
  {
    "stateName": "ANDHRA PRADESH",
    "circleName": "Andhra Pradesh Circle",
    "regionName": "Vijayawada Region",
    "divisionName": "Narasaraopet Division",
    "officeName": "TURAKAPALEM BO",
    "pinCode": "522603",
    "officeType": "BO",
    "district": "Palnadu",
    "latitude": "16.2872",
    "longitude": "80.018384"
  },
  {
    "stateName": "ANDHRA PRADESH",
    "circleName": "Andhra Pradesh Circle",
    "regionName": "Vijayawada Region",
    "divisionName": "Narasaraopet Division",
    "officeName": "Bethapudi B.O",
    "pinCode": "522549",
    "officeType": "BO",
    "district": "GUNTUR",
    "latitude": "16.3151",
    "longitude": "80.1763"
  },
  {
    "stateName": "ANDHRA PRADESH",
    "circleName": "Andhra Pradesh Circle",
    "regionName": "Vijayawada Region",
    "divisionName": "Narasaraopet Division",
    "officeName": "Gorizavole B.O",
    "pinCode": "522549",
    "officeType": "BO",
    "district": "Palnadu",
    "latitude": "16.2536",
    "longitude": "80.1768"
  },
  {
    "stateName": "ANDHRA PRADESH",
    "circleName": "Andhra Pradesh Circle",
    "regionName": "Vijayawada Region",
    "divisionName": "Narasaraopet Division",
    "officeName": "Ellamanda B.O",
    "pinCode": "522549",
    "officeType": "BO",
    "district": "Palnadu",
    "latitude": "16.18",
    "longitude": "80.05"
  },
  {
    "stateName": "ANDHRA PRADESH",
    "circleName": "Andhra Pradesh Circle",
    "regionName": "Vijayawada Region",
    "divisionName": "Narasaraopet Division",
    "officeName": "Jonnalagadda B.O",
    "pinCode": "522549",
    "officeType": "BO",
    "district": "Palnadu",
    "latitude": "16.24",
    "longitude": "80.08"
  },
  {
    "stateName": "ANDHRA PRADESH",
    "circleName": "Andhra Pradesh Circle",
    "regionName": "Vijayawada Region",
    "divisionName": "Narasaraopet Division",
    "officeName": "Kesanapalle B.O",
    "pinCode": "522549",
    "officeType": "BO",
    "district": "Palnadu",
    "latitude": "16.21",
    "longitude": "80.08"
  },
  {
    "stateName": "ANDHRA PRADESH",
    "circleName": "Andhra Pradesh Circle",
    "regionName": "Vijayawada Region",
    "divisionName": "Narasaraopet Division",
    "officeName": "Vayyakallu B.O",
    "pinCode": "522646",
    "officeType": "BO",
    "district": "Palnadu",
    "latitude": "16.0425",
    "longitude": "79.8763"
  },
  {
    "stateName": "ANDHRA PRADESH",
    "circleName": "Andhra Pradesh Circle",
    "regionName": "Vijayawada Region",
    "divisionName": "Narasaraopet Division",
    "officeName": "Velpuru B.O",
    "pinCode": "522646",
    "officeType": "BO",
    "district": "Palnadu",
    "latitude": "16.1481",
    "longitude": "79.8599"
  },
  {
    "stateName": "ANDHRA PRADESH",
    "circleName": "Andhra Pradesh Circle",
    "regionName": "Vijayawada Region",
    "divisionName": "Narasaraopet Division",
    "officeName": "Guntupalem B.O",
    "pinCode": "522646",
    "officeType": "BO",
    "district": "Palnadu",
    "latitude": "16.046",
    "longitude": "79.868"
  },
  {
    "stateName": "ANDHRA PRADESH",
    "circleName": "Andhra Pradesh Circle",
    "regionName": "Vijayawada Region",
    "divisionName": "Narasaraopet Division",
    "officeName": "IRLAPADU B.O",
    "pinCode": "522646",
    "officeType": "BO",
    "district": "Palnadu",
    "latitude": "16.16746",
    "longitude": "79.82617"
  },
  {
    "stateName": "ANDHRA PRADESH",
    "circleName": "Andhra Pradesh Circle",
    "regionName": "Vijayawada Region",
    "divisionName": "Narasaraopet Division",
    "officeName": "Kanumalacheruvu B.O",
    "pinCode": "522657",
    "officeType": "BO",
    "district": "Palnadu",
    "latitude": "16.1187",
    "longitude": "79.603"
  },
  {
    "stateName": "ANDHRA PRADESH",
    "circleName": "Andhra Pradesh Circle",
    "regionName": "Vijayawada Region",
    "divisionName": "Narasaraopet Division",
    "officeName": "Andugula Kothapalem B.O",
    "pinCode": "522647",
    "officeType": "BO",
    "district": "Palnadu",
    "latitude": "16.0115",
    "longitude": "79.6085"
  },
  {
    "stateName": "ANDHRA PRADESH",
    "circleName": "Andhra Pradesh Circle",
    "regionName": "Vijayawada Region",
    "divisionName": "Narasaraopet Division",
    "officeName": "Chatragaddapadu B.O",
    "pinCode": "522647",
    "officeType": "BO",
    "district": "Palnadu",
    "latitude": "16.0234",
    "longitude": "79.7512"
  },
  {
    "stateName": "ANDHRA PRADESH",
    "circleName": "Andhra Pradesh Circle",
    "regionName": "Vijayawada Region",
    "divisionName": "Narasaraopet Division",
    "officeName": "Koppukonda B.O",
    "pinCode": "522647",
    "officeType": "BO",
    "district": "Palnadu",
    "latitude": "16.0683",
    "longitude": "79.5834"
  },
  {
    "stateName": "ANDHRA PRADESH",
    "circleName": "Andhra Pradesh Circle",
    "regionName": "Vijayawada Region",
    "divisionName": "Narasaraopet Division",
    "officeName": "Nadigadda B.O",
    "pinCode": "522647",
    "officeType": "BO",
    "district": "Palnadu",
    "latitude": "16.0467",
    "longitude": "79.6425"
  },
  {
    "stateName": "ANDHRA PRADESH",
    "circleName": "Andhra Pradesh Circle",
    "regionName": "Vijayawada Region",
    "divisionName": "Narasaraopet Division",
    "officeName": "Neelagangavaram B.O",
    "pinCode": "522647",
    "officeType": "BO",
    "district": "Palnadu",
    "latitude": "16.04",
    "longitude": "79.563"
  },
  {
    "stateName": "ANDHRA PRADESH",
    "circleName": "Andhra Pradesh Circle",
    "regionName": "Vijayawada Region",
    "divisionName": "Narasaraopet Division",
    "officeName": "Kogantivaripalem B.O",
    "pinCode": "522409",
    "officeType": "BO",
    "district": "Palnadu",
    "latitude": "16.6227",
    "longitude": "80.1519"
  },
  {
    "stateName": "ANDHRA PRADESH",
    "circleName": "Andhra Pradesh Circle",
    "regionName": "Vijayawada Region",
    "divisionName": "Narasaraopet Division",
    "officeName": "Taduvai B.O",
    "pinCode": "522409",
    "officeType": "BO",
    "district": "Palnadu",
    "latitude": "16.7451",
    "longitude": "80.1338"
  },
  {
    "stateName": "ANDHRA PRADESH",
    "circleName": "Andhra Pradesh Circle",
    "regionName": "Vijayawada Region",
    "divisionName": "Narasaraopet Division",
    "officeName": "NEELESWARAPALEM B.O",
    "pinCode": "522409",
    "officeType": "BO",
    "district": "Palnadu",
    "latitude": "16.62458",
    "longitude": "80.08717"
  },
  {
    "stateName": "ANDHRA PRADESH",
    "circleName": "Andhra Pradesh Circle",
    "regionName": "Vijayawada Region",
    "divisionName": "Narasaraopet Division",
    "officeName": "Bodanam B.O",
    "pinCode": "522411",
    "officeType": "BO",
    "district": "Palnadu",
    "latitude": "16.6309",
    "longitude": "79.9511"
  },
  {
    "stateName": "ANDHRA PRADESH",
    "circleName": "Andhra Pradesh Circle",
    "regionName": "Vijayawada Region",
    "divisionName": "Narasaraopet Division",
    "officeName": "Chityala Thanda B.O",
    "pinCode": "522411",
    "officeType": "BO",
    "district": "Palnadu",
    "latitude": "16.6561",
    "longitude": "79.987"
  },
  {
    "stateName": "ANDHRA PRADESH",
    "circleName": "Andhra Pradesh Circle",
    "regionName": "Vijayawada Region",
    "divisionName": "Narasaraopet Division",
    "officeName": "MANNESULTANPALEM BO",
    "pinCode": "522411",
    "officeType": "BO",
    "district": "Palnadu",
    "latitude": "16.577",
    "longitude": "79.97"
  },
  {
    "stateName": "ANDHRA PRADESH",
    "circleName": "Andhra Pradesh Circle",
    "regionName": "Vijayawada Region",
    "divisionName": "Narasaraopet Division",
    "officeName": "China Garlapadu B.O",
    "pinCode": "522437",
    "officeType": "BO",
    "district": "Palnadu",
    "latitude": "16.4932",
    "longitude": "79.763"
  },
  {
    "stateName": "ANDHRA PRADESH",
    "circleName": "Andhra Pradesh Circle",
    "regionName": "Vijayawada Region",
    "divisionName": "Narasaraopet Division",
    "officeName": "BATRUPALEM BO",
    "pinCode": "522414",
    "officeType": "BO",
    "district": "Palnadu",
    "latitude": "16.678",
    "longitude": "79.731"
  },
  {
    "stateName": "ANDHRA PRADESH",
    "circleName": "Andhra Pradesh Circle",
    "regionName": "Vijayawada Region",
    "divisionName": "Narasaraopet Division",
    "officeName": "KATRAPADU BO",
    "pinCode": "522414",
    "officeType": "BO",
    "district": "Palnadu",
    "latitude": "16.715233",
    "longitude": "79.755968"
  },
  {
    "stateName": "ANDHRA PRADESH",
    "circleName": "Andhra Pradesh Circle",
    "regionName": "Vijayawada Region",
    "divisionName": "Narasaraopet Division",
    "officeName": "Daida B.O",
    "pinCode": "522415",
    "officeType": "BO",
    "district": "Palnadu",
    "latitude": "16.636",
    "longitude": "79.6018"
  },
  {
    "stateName": "ANDHRA PRADESH",
    "circleName": "Andhra Pradesh Circle",
    "regionName": "Vijayawada Region",
    "divisionName": "Narasaraopet Division",
    "officeName": "Gangavaram B.O",
    "pinCode": "522415",
    "officeType": "BO",
    "district": "Palnadu",
    "latitude": "16.5765",
    "longitude": "79.6434"
  },
  {
    "stateName": "ANDHRA PRADESH",
    "circleName": "Andhra Pradesh Circle",
    "regionName": "Vijayawada Region",
    "divisionName": "Narasaraopet Division",
    "officeName": "Grandhasiri B.O",
    "pinCode": "522410",
    "officeType": "BO",
    "district": "Palnadu",
    "latitude": "16.5744",
    "longitude": "80.1514"
  },
  {
    "stateName": "ANDHRA PRADESH",
    "circleName": "Andhra Pradesh Circle",
    "regionName": "Vijayawada Region",
    "divisionName": "Narasaraopet Division",
    "officeName": "Konduru B.O",
    "pinCode": "522410",
    "officeType": "BO",
    "district": "Palnadu",
    "latitude": "16.574",
    "longitude": "80.0676"
  },
  {
    "stateName": "ANDHRA PRADESH",
    "circleName": "Andhra Pradesh Circle",
    "regionName": "Vijayawada Region",
    "divisionName": "Narasaraopet Division",
    "officeName": "GANDLURU BO",
    "pinCode": "522410",
    "officeType": "BO",
    "district": "Palnadu",
    "latitude": "16.438",
    "longitude": "80.145"
  },
  {
    "stateName": "ANDHRA PRADESH",
    "circleName": "Andhra Pradesh Circle",
    "regionName": "Vijayawada Region",
    "divisionName": "Narasaraopet Division",
    "officeName": "Velampalle B.O",
    "pinCode": "522435",
    "officeType": "BO",
    "district": "Palnadu",
    "latitude": "16.628",
    "longitude": "79.9092"
  },
  {
    "stateName": "ANDHRA PRADESH",
    "circleName": "Andhra Pradesh Circle",
    "regionName": "Vijayawada Region",
    "divisionName": "Narasaraopet Division",
    "officeName": "Vemavaram B.O",
    "pinCode": "522435",
    "officeType": "BO",
    "district": "Palnadu",
    "latitude": "16.6291",
    "longitude": "79.8614"
  },
  {
    "stateName": "ANDHRA PRADESH",
    "circleName": "Andhra Pradesh Circle",
    "regionName": "Vijayawada Region",
    "divisionName": "Narasaraopet Division",
    "officeName": "Gannavaram B.O",
    "pinCode": "522426",
    "officeType": "BO",
    "district": "Palnadu",
    "latitude": "16.5248",
    "longitude": "79.4717"
  },
  {
    "stateName": "ANDHRA PRADESH",
    "circleName": "Andhra Pradesh Circle",
    "regionName": "Vijayawada Region",
    "divisionName": "Narasaraopet Division",
    "officeName": "Mandadi B.O",
    "pinCode": "522426",
    "officeType": "BO",
    "district": "Palnadu",
    "latitude": "16.4087",
    "longitude": "79.4048"
  },
  {
    "stateName": "ANDHRA PRADESH",
    "circleName": "Andhra Pradesh Circle",
    "regionName": "Vijayawada Region",
    "divisionName": "Narasaraopet Division",
    "officeName": "Nagulavaram B.O",
    "pinCode": "522426",
    "officeType": "BO",
    "district": "Palnadu",
    "latitude": "16.5104",
    "longitude": "79.3065"
  },
  {
    "stateName": "ANDHRA PRADESH",
    "circleName": "Andhra Pradesh Circle",
    "regionName": "Vijayawada Region",
    "divisionName": "Narasaraopet Division",
    "officeName": "Rayavaram B.O",
    "pinCode": "522426",
    "officeType": "BO",
    "district": "Palnadu",
    "latitude": "16.4576",
    "longitude": "79.4688"
  },
  {
    "stateName": "ANDHRA PRADESH",
    "circleName": "Andhra Pradesh Circle",
    "regionName": "Vijayawada Region",
    "divisionName": "Narasaraopet Division",
    "officeName": "Tallapalle B.O",
    "pinCode": "522426",
    "officeType": "BO",
    "district": "Palnadu",
    "latitude": "16.5142",
    "longitude": "79.3947"
  },
  {
    "stateName": "ANDHRA PRADESH",
    "circleName": "Andhra Pradesh Circle",
    "regionName": "Vijayawada Region",
    "divisionName": "Narasaraopet Division",
    "officeName": "Turakapalem B.O",
    "pinCode": "522438",
    "officeType": "BO",
    "district": "GUNTUR",
    "latitude": "16.3257",
    "longitude": "80.3056"
  },
  {
    "stateName": "ANDHRA PRADESH",
    "circleName": "Andhra Pradesh Circle",
    "regionName": "Vijayawada Region",
    "divisionName": "Narasaraopet Division",
    "officeName": "Narnepadu B.O",
    "pinCode": "522408",
    "officeType": "BO",
    "district": "Palnadu",
    "latitude": "16.3162",
    "longitude": "80.1417"
  },
  {
    "stateName": "ANDHRA PRADESH",
    "circleName": "Andhra Pradesh Circle",
    "regionName": "Vijayawada Region",
    "divisionName": "Narasaraopet Division",
    "officeName": "Attaluru B.O",
    "pinCode": "522436",
    "officeType": "BO",
    "district": "Palnadu",
    "latitude": "16.5362",
    "longitude": "80.254"
  },
  {
    "stateName": "ANDHRA PRADESH",
    "circleName": "Andhra Pradesh Circle",
    "regionName": "Vijayawada Region",
    "divisionName": "Narasaraopet Division",
    "officeName": "Lingapuram B.O",
    "pinCode": "522436",
    "officeType": "BO",
    "district": "Palnadu",
    "latitude": "16.5353",
    "longitude": "80.3261"
  },
  {
    "stateName": "ANDHRA PRADESH",
    "circleName": "Andhra Pradesh Circle",
    "regionName": "Vijayawada Region",
    "divisionName": "Narasaraopet Division",
    "officeName": "Pedamakkena B.O",
    "pinCode": "522402",
    "officeType": "BO",
    "district": "Palnadu",
    "latitude": "16.4331",
    "longitude": "80.241"
  },
  {
    "stateName": "ANDHRA PRADESH",
    "circleName": "Andhra Pradesh Circle",
    "regionName": "Vijayawada Region",
    "divisionName": "Narasaraopet Division",
    "officeName": "Morjampadu B.O",
    "pinCode": "522413",
    "officeType": "BO",
    "district": "Palnadu",
    "latitude": "16.5938",
    "longitude": "79.9081"
  },
  {
    "stateName": "ANDHRA PRADESH",
    "circleName": "Andhra Pradesh Circle",
    "regionName": "Vijayawada Region",
    "divisionName": "Narasaraopet Division",
    "officeName": "Nemalipuri B.O",
    "pinCode": "522413",
    "officeType": "BO",
    "district": "Palnadu",
    "latitude": "16.4411",
    "longitude": "79.9229"
  },
  {
    "stateName": "ANDHRA PRADESH",
    "circleName": "Andhra Pradesh Circle",
    "regionName": "Vijayawada Region",
    "divisionName": "Narasaraopet Division",
    "officeName": "Panditivaripalem B.O",
    "pinCode": "522413",
    "officeType": "BO",
    "district": "Palnadu",
    "latitude": "16.4607",
    "longitude": "79.8164"
  },
  {
    "stateName": "ANDHRA PRADESH",
    "circleName": "Andhra Pradesh Circle",
    "regionName": "Vijayawada Region",
    "divisionName": "Narasaraopet Division",
    "officeName": "GOVINDAPURAM BO",
    "pinCode": "522413",
    "officeType": "BO",
    "district": "Palnadu",
    "latitude": "16.628135",
    "longitude": "79.909515"
  },
  {
    "stateName": "ANDHRA PRADESH",
    "circleName": "Andhra Pradesh Circle",
    "regionName": "Vijayawada Region",
    "divisionName": "Narasaraopet Division",
    "officeName": "Balijepalle B.O",
    "pinCode": "522412",
    "officeType": "BO",
    "district": "Palnadu",
    "latitude": "16.4014",
    "longitude": "80.0301"
  },
  {
    "stateName": "ANDHRA PRADESH",
    "circleName": "Andhra Pradesh Circle",
    "regionName": "Vijayawada Region",
    "divisionName": "Narasaraopet Division",
    "officeName": "Nagavaram B.O",
    "pinCode": "522412",
    "officeType": "BO",
    "district": "Palnadu",
    "latitude": "16.4801",
    "longitude": "80.0566"
  },
  {
    "stateName": "ANDHRA PRADESH",
    "circleName": "Andhra Pradesh Circle",
    "regionName": "Vijayawada Region",
    "divisionName": "Narasaraopet Division",
    "officeName": "Kandulavaripalem B.O",
    "pinCode": "522412",
    "officeType": "BO",
    "district": "Palnadu",
    "latitude": "16.4705",
    "longitude": "80.1025"
  },
  {
    "stateName": "ANDHRA PRADESH",
    "circleName": "Andhra Pradesh Circle",
    "regionName": "Vijayawada Region",
    "divisionName": "Narasaraopet Division",
    "officeName": "Goli B.O",
    "pinCode": "522421",
    "officeType": "BO",
    "district": "Palnadu",
    "latitude": "16.5891",
    "longitude": "79.5238"
  },
  {
    "stateName": "ANDHRA PRADESH",
    "circleName": "Andhra Pradesh Circle",
    "regionName": "Vijayawada Region",
    "divisionName": "Narasaraopet Division",
    "officeName": "MALLAVARAM BO",
    "pinCode": "522421",
    "officeType": "BO",
    "district": "Palnadu",
    "latitude": "16.603",
    "longitude": "79.473"
  },