[
  {
    "stateName": "BIHAR",
    "circleName": "Bihar Circle",
    "regionName": "Muzaffarpur Region",
    "divisionName": "Saran Division",
    "officeName": "Kakadhiya BO",
    "pinCode": "841414",
    "officeType": "BO",
    "district": "SARAN",
    "latitude": "25.858332",
    "longitude": "84.75767"
  },
  {
    "stateName": "BIHAR",
    "circleName": "Bihar Circle",
    "regionName": "Muzaffarpur Region",
    "divisionName": "Saran Division",
    "officeName": "Rampur Kala BO",
    "pinCode": "841414",
    "officeType": "BO",
    "district": "SARAN",
    "latitude": "25.858332",
    "longitude": "84.75767"
  },
  {
    "stateName": "BIHAR",
    "circleName": "Bihar Circle",
    "regionName": "Muzaffarpur Region",
    "divisionName": "Saran Division",
    "officeName": "Dhenuki BO",
    "pinCode": "841417",
    "officeType": "BO",
    "district": "SARAN",
    "latitude": "26.10562",
    "longitude": "84.803062"
  },
  {
    "stateName": "BIHAR",
    "circleName": "Bihar Circle",
    "regionName": "Muzaffarpur Region",
    "divisionName": "Saran Division",
    "officeName": "Kawalpura BO",
    "pinCode": "841417",
    "officeType": "BO",
    "district": "SARAN",
    "latitude": "26.10562",
    "longitude": "84.803062"
  },
  {
    "stateName": "BIHAR",
    "circleName": "Bihar Circle",
    "regionName": "Muzaffarpur Region",
    "divisionName": "Saran Division",
    "officeName": "Nawada BO",
    "pinCode": "841417",
    "officeType": "BO",
    "district": "SARAN",
    "latitude": "26.10562",
    "longitude": "84.803062"
  },
  {
    "stateName": "BIHAR",
    "circleName": "Bihar Circle",
    "regionName": "Muzaffarpur Region",
    "divisionName": "Saran Division",
    "officeName": "Sherukaha BO",
    "pinCode": "841417",
    "officeType": "BO",
    "district": "SARAN",
    "latitude": "26.10562",
    "longitude": "84.803062"
  },
  {
    "stateName": "BIHAR",
    "circleName": "Bihar Circle",
    "regionName": "Muzaffarpur Region",
    "divisionName": "Saran Division",
    "officeName": "Silhauri BO",
    "pinCode": "841419",
    "officeType": "BO",
    "district": "SARAN",
    "latitude": "25.927241",
    "longitude": "84.829421"
  },
  {
    "stateName": "BIHAR",
    "circleName": "Bihar Circle",
    "regionName": "Muzaffarpur Region",
    "divisionName": "Saran Division",
    "officeName": "Rampur Khorram BO",
    "pinCode": "841442",
    "officeType": "BO",
    "district": "SARAN",
    "latitude": "25.89638",
    "longitude": "84.749837"
  },
  {
    "stateName": "BIHAR",
    "circleName": "Bihar Circle",
    "regionName": "Muzaffarpur Region",
    "divisionName": "Saran Division",
    "officeName": "Koreya BO",
    "pinCode": "841218",
    "officeType": "BO",
    "district": "SARAN",
    "latitude": "25.912141",
    "longitude": "84.922569"
  },
  {
    "stateName": "BIHAR",
    "circleName": "Bihar Circle",
    "regionName": "Muzaffarpur Region",
    "divisionName": "Saran Division",
    "officeName": "Gamahria BO",
    "pinCode": "841421",
    "officeType": "BO",
    "district": "SARAN",
    "latitude": "26.058849",
    "longitude": "84.800731"
  },
  {
    "stateName": "BIHAR",
    "circleName": "Bihar Circle",
    "regionName": "Muzaffarpur Region",
    "divisionName": "Saran Division",
    "officeName": "Bhalua Bhikhari BO",
    "pinCode": "841424",
    "officeType": "BO",
    "district": "SARAN",
    "latitude": "26.072566",
    "longitude": "84.883948"
  },
  {
    "stateName": "BIHAR",
    "circleName": "Bihar Circle",
    "regionName": "Muzaffarpur Region",
    "divisionName": "Saran Division",
    "officeName": "Gawandri BO",
    "pinCode": "841424",
    "officeType": "BO",
    "district": "SARAN",
    "latitude": "26.072566",
    "longitude": "84.883948"
  },
  {
    "stateName": "BIHAR",
    "circleName": "Bihar Circle",
    "regionName": "Muzaffarpur Region",
    "divisionName": "Saran Division",
    "officeName": "Pokhrera BO",
    "pinCode": "841424",
    "officeType": "BO",
    "district": "SARAN",
    "latitude": "26.072566",
    "longitude": "84.883948"
  },
  {
    "stateName": "BIHAR",
    "circleName": "Bihar Circle",
    "regionName": "Muzaffarpur Region",
    "divisionName": "Sitamarhi Division",
    "officeName": "BhBhimpur BO",
    "pinCode": "843311",
    "officeType": "BO",
    "district": "SITAMARHI",
    "latitude": "26.38855",
    "longitude": "85.51"
  },
  {
    "stateName": "BIHAR",
    "circleName": "Bihar Circle",
    "regionName": "Muzaffarpur Region",
    "divisionName": "Sitamarhi Division",
    "officeName": "Belahi BO",
    "pinCode": "843311",
    "officeType": "BO",
    "district": "SITAMARHI",
    "latitude": "26.38",
    "longitude": "85.5"
  },
  {
    "stateName": "BIHAR",
    "circleName": "Bihar Circle",
    "regionName": "Muzaffarpur Region",
    "divisionName": "Sitamarhi Division",
    "officeName": "Jamua BO",
    "pinCode": "843313",
    "officeType": "BO",
    "district": "SITAMARHI",
    "latitude": "26.73065",
    "longitude": "85.3101"
  },
  {
    "stateName": "BIHAR",
    "circleName": "Bihar Circle",
    "regionName": "Muzaffarpur Region",
    "divisionName": "Sitamarhi Division",
    "officeName": "BNarha BO",
    "pinCode": "843314",
    "officeType": "BO",
    "district": "SITAMARHI",
    "latitude": "26.503",
    "longitude": "85.64575"
  },
  {
    "stateName": "BIHAR",
    "circleName": "Bihar Circle",
    "regionName": "Muzaffarpur Region",
    "divisionName": "Sitamarhi Division",
    "officeName": "Harpurwa BO",
    "pinCode": "843314",
    "officeType": "BO",
    "district": "SITAMARHI",
    "latitude": "26.503",
    "longitude": "85.64575"
  },
  {
    "stateName": "BIHAR",
    "circleName": "Bihar Circle",
    "regionName": "Muzaffarpur Region",
    "divisionName": "Sitamarhi Division",
    "officeName": "Basbitta BO",
    "pinCode": "843315",
    "officeType": "BO",
    "district": "SITAMARHI",
    "latitude": "26.503",
    "longitude": "85.51165"
  },
  {
    "stateName": "BIHAR",
    "circleName": "Bihar Circle",
    "regionName": "Muzaffarpur Region",
    "divisionName": "Sitamarhi Division",
    "officeName": "Bokhtha BO",
    "pinCode": "843315",
    "officeType": "BO",
    "district": "SITAMARHI",
    "latitude": "26.503",
    "longitude": "85.51165"
  },
  {
    "stateName": "BIHAR",
    "circleName": "Bihar Circle",
    "regionName": "Muzaffarpur Region",
    "divisionName": "Sitamarhi Division",
    "officeName": "Gamhariya BO",
    "pinCode": "843315",
    "officeType": "BO",
    "district": "SITAMARHI",
    "latitude": "26.5",
    "longitude": "85.51"
  },
  {
    "stateName": "BIHAR",
    "circleName": "Bihar Circle",
    "regionName": "Muzaffarpur Region",
    "divisionName": "Sitamarhi Division",
    "officeName": "Harpurkala BO",
    "pinCode": "843315",
    "officeType": "BO",
    "district": "SITAMARHI",
    "latitude": "26.503",
    "longitude": "85.51165"
  },
  {
    "stateName": "BIHAR",
    "circleName": "Bihar Circle",
    "regionName": "Muzaffarpur Region",
    "divisionName": "Sitamarhi Division",
    "officeName": "Madhurapur BO",
    "pinCode": "843315",
    "officeType": "BO",
    "district": "SITAMARHI",
    "latitude": "26.503",
    "longitude": "85.64575"
  },
  {
    "stateName": "BIHAR",
    "circleName": "Bihar Circle",
    "regionName": "Muzaffarpur Region",
    "divisionName": "Sitamarhi Division",
    "officeName": "Bhandari BO",
    "pinCode": "843316",
    "officeType": "BO",
    "district": "SITAMARHI",
    "latitude": "26.45008",
    "longitude": "85.399992"
  },
  {
    "stateName": "BIHAR",
    "circleName": "Bihar Circle",
    "regionName": "Muzaffarpur Region",
    "divisionName": "Sitamarhi Division",
    "officeName": "Kansar BO",
    "pinCode": "843316",
    "officeType": "BO",
    "district": "SITAMARHI",
    "latitude": "26.41686",
    "longitude": "85.40478"
  },
  {
    "stateName": "BIHAR",
    "circleName": "Bihar Circle",
    "regionName": "Muzaffarpur Region",
    "divisionName": "Sitamarhi Division",
    "officeName": "T Chhapra BO",
    "pinCode": "843316",
    "officeType": "BO",
    "district": "SITAMARHI",
    "latitude": "26.450005",
    "longitude": "85.399995"
  },
  {
    "stateName": "BIHAR",
    "circleName": "Bihar Circle",
    "regionName": "Muzaffarpur Region",
    "divisionName": "Sitamarhi Division",
    "officeName": "Haribela BO",
    "pinCode": "843317",
    "officeType": "BO",
    "district": "SITAMARHI",
    "latitude": "26.8472617",
    "longitude": "85.580497"
  },
  {
    "stateName": "BIHAR",
    "circleName": "Bihar Circle",
    "regionName": "Muzaffarpur Region",
    "divisionName": "Sitamarhi Division",
    "officeName": "Sujatpur BO",
    "pinCode": "843319",
    "officeType": "BO",
    "district": "SITAMARHI",
    "latitude": "26.5218",
    "longitude": "85.76208"
  },
  {
    "stateName": "BIHAR",
    "circleName": "Bihar Circle",
    "regionName": "Muzaffarpur Region",
    "divisionName": "Sitamarhi Division",
    "officeName": "B Dharmapur BO",
    "pinCode": "843320",
    "officeType": "BO",
    "district": "SITAMARHI",
    "latitude": "26.4670003",
    "longitude": "85.69996"
  },
  {
    "stateName": "BIHAR",
    "circleName": "Bihar Circle",
    "regionName": "Muzaffarpur Region",
    "divisionName": "Sitamarhi Division",
    "officeName": "BBajitpur BO",
    "pinCode": "843320",
    "officeType": "BO",
    "district": "SITAMARHI",
    "latitude": "26.52182",
    "longitude": "85.7644"
  },
  {
    "stateName": "BIHAR",
    "circleName": "Bihar Circle",
    "regionName": "Muzaffarpur Region",
    "divisionName": "Sitamarhi Division",
    "officeName": "Basotra BO",
    "pinCode": "843320",
    "officeType": "BO",
    "district": "SITAMARHI",
    "latitude": "26.4670084",
    "longitude": "85.6999719"
  },
  {
    "stateName": "BIHAR",
    "circleName": "Bihar Circle",
    "regionName": "Muzaffarpur Region",
    "divisionName": "Sitamarhi Division",
    "officeName": "Ratan Lasmi BO",
    "pinCode": "843320",
    "officeType": "BO",
    "district": "SITAMARHI",
    "latitude": "26.73065",
    "longitude": "85.3101"
  },
  {
    "stateName": "BIHAR",
    "circleName": "Bihar Circle",
    "regionName": "Muzaffarpur Region",
    "divisionName": "Sitamarhi Division",
    "officeName": "Lattipur BO",
    "pinCode": "843322",
    "officeType": "BO",
    "district": "SITAMARHI",
    "latitude": "36.66005",
    "longitude": "85.58105"
  },
  {
    "stateName": "BIHAR",
    "circleName": "Bihar Circle",
    "regionName": "Muzaffarpur Region",
    "divisionName": "Sitamarhi Division",
    "officeName": "Bahera BO",
    "pinCode": "843332",
    "officeType": "BO",
    "district": "SITAMARHI",
    "latitude": "26.7733",
    "longitude": "85.4234"
  },
  {
    "stateName": "BIHAR",
    "circleName": "Bihar Circle",
    "regionName": "Muzaffarpur Region",
    "divisionName": "Sitamarhi Division",
    "officeName": "Baghari BO",
    "pinCode": "843323",
    "officeType": "BO",
    "district": "SITAMARHI",
    "latitude": "26.3874837",
    "longitude": "85.5071399"
  },
  {
    "stateName": "BIHAR",
    "circleName": "Bihar Circle",
    "regionName": "Muzaffarpur Region",
    "divisionName": "Sitamarhi Division",
    "officeName": "Garha BO",
    "pinCode": "843323",
    "officeType": "BO",
    "district": "SITAMARHI",
    "latitude": "26.4766079",
    "longitude": "85.7071916"
  },
  {
    "stateName": "BIHAR",
    "circleName": "Bihar Circle",
    "regionName": "Muzaffarpur Region",
    "divisionName": "Sitamarhi Division",
    "officeName": "Lagma Azamgarh BO",
    "pinCode": "843323",
    "officeType": "BO",
    "district": "SITAMARHI",
    "latitude": "26.41908",
    "longitude": "85.56815"
  },
  {
    "stateName": "BIHAR",
    "circleName": "Bihar Circle",
    "regionName": "Muzaffarpur Region",
    "divisionName": "Sitamarhi Division",
    "officeName": "Prem Nagar Subhai BO",
    "pinCode": "843323",
    "officeType": "BO",
    "district": "SITAMARHI",
    "latitude": "26.73065",
    "longitude": "85.3101"
  },
  {
    "stateName": "BIHAR",
    "circleName": "Bihar Circle",
    "regionName": "Muzaffarpur Region",
    "divisionName": "Sitamarhi Division",
    "officeName": "Bhadiyan BO",
    "pinCode": "843333",
    "officeType": "BO",
    "district": "SITAMARHI",
    "latitude": "26.44091",
    "longitude": "85.6654"
  },
  {
    "stateName": "BIHAR",
    "circleName": "Bihar Circle",
    "regionName": "Muzaffarpur Region",
    "divisionName": "Sitamarhi Division",
    "officeName": "Humayupur BO",
    "pinCode": "843333",
    "officeType": "BO",
    "district": "SITAMARHI",
    "latitude": "26.45493",
    "longitude": "85.6653"
  },
  {
    "stateName": "BIHAR",
    "circleName": "Bihar Circle",
    "regionName": "Muzaffarpur Region",
    "divisionName": "Sitamarhi Division",
    "officeName": "BMachhpakauni BO",
    "pinCode": "843324",
    "officeType": "BO",
    "district": "SITAMARHI",
    "latitude": "26.7452329",
    "longitude": "85.7013476"
  },
  {
    "stateName": "BIHAR",
    "circleName": "Bihar Circle",
    "regionName": "Muzaffarpur Region",
    "divisionName": "Sitamarhi Division",
    "officeName": "Baburban BO",
    "pinCode": "843324",
    "officeType": "BO",
    "district": "SITAMARHI",
    "latitude": "26.5078744",
    "longitude": "85.6396251"
  },
  {
    "stateName": "BIHAR",
    "circleName": "Bihar Circle",
    "regionName": "Muzaffarpur Region",
    "divisionName": "Sitamarhi Division",
    "officeName": "Bishanpur BO",
    "pinCode": "843324",
    "officeType": "BO",
    "district": "SITAMARHI",
    "latitude": "26.7484376",
    "longitude": "85.7013211"
  },
  {
    "stateName": "BIHAR",
    "circleName": "Bihar Circle",
    "regionName": "Muzaffarpur Region",
    "divisionName": "Sitamarhi Division",
    "officeName": "Indarwa BO",
    "pinCode": "843324",
    "officeType": "BO",
    "district": "SITAMARHI",
    "latitude": "26.521645",
    "longitude": "85.32375"
  },
  {
    "stateName": "BIHAR",
    "circleName": "Bihar Circle",
    "regionName": "Muzaffarpur Region",
    "divisionName": "Sitamarhi Division",
    "officeName": "RBhanpur BO",
    "pinCode": "843324",
    "officeType": "BO",
    "district": "SITAMARHI",
    "latitude": "26.7222941",
    "longitude": "85.6766771"
  },
  {
    "stateName": "BIHAR",
    "circleName": "Bihar Circle",
    "regionName": "Muzaffarpur Region",
    "divisionName": "Sitamarhi Division",
    "officeName": "Sahargama BO",
    "pinCode": "843324",
    "officeType": "BO",
    "district": "SITAMARHI",
    "latitude": "26.7223321",
    "longitude": "85.6768669"
  },
  {
    "stateName": "BIHAR",
    "circleName": "Bihar Circle",
    "regionName": "Muzaffarpur Region",
    "divisionName": "Sitamarhi Division",
    "officeName": "Sardalpatti BO",
    "pinCode": "843324",
    "officeType": "BO",
    "district": "SITAMARHI",
    "latitude": "26.52645",
    "longitude": "85.32375"
  },
  {
    "stateName": "BIHAR",
    "circleName": "Bihar Circle",
    "regionName": "Muzaffarpur Region",
    "divisionName": "Sitamarhi Division",
    "officeName": "KGajpatti BO",
    "pinCode": "843325",
    "officeType": "BO",
    "district": "SITAMARHI",
    "latitude": "26.48",
    "longitude": "85.73"
  },
  {
    "stateName": "BIHAR",
    "circleName": "Bihar Circle",
    "regionName": "Muzaffarpur Region",
    "divisionName": "Sitamarhi Division",
    "officeName": "Parshurampur BO",
    "pinCode": "843325",
    "officeType": "BO",
    "district": "SITAMARHI",
    "latitude": "26.4729",
    "longitude": "85.36"
  },
  {
    "stateName": "BIHAR",
    "circleName": "Bihar Circle",
    "regionName": "Muzaffarpur Region",
    "divisionName": "Sitamarhi Division",
    "officeName": "MDostiya BO",
    "pinCode": "843334",
    "officeType": "BO",
    "district": "SHEOHAR",
    "latitude": "26.73065",
    "longitude": "85.3101"
  },
  {
    "stateName": "BIHAR",
    "circleName": "Bihar Circle",
    "regionName": "Muzaffarpur Region",
    "divisionName": "Sitamarhi Division",
    "officeName": "Balasath BO",
    "pinCode": "843326",
    "officeType": "BO",
    "district": "SITAMARHI",
    "latitude": "26.4494",
    "longitude": "85.4834"
  },
  {
    "stateName": "BIHAR",
    "circleName": "Bihar Circle",
    "regionName": "Muzaffarpur Region",
    "divisionName": "Sitamarhi Division",
    "officeName": "MSakrauli BO",
    "pinCode": "843326",
    "officeType": "BO",
    "district": "SITAMARHI",
    "latitude": "26.44945",
    "longitude": "85.4834"
  },
  {
    "stateName": "BIHAR",
    "circleName": "Bihar Circle",
    "regionName": "Muzaffarpur Region",
    "divisionName": "Sitamarhi Division",
    "officeName": "Barahi BO",
    "pinCode": "843327",
    "officeType": "BO",
    "district": "SITAMARHI",
    "latitude": "26.65405",
    "longitude": "85.4446"
  },
  {
    "stateName": "BIHAR",
    "circleName": "Bihar Circle",
    "regionName": "Muzaffarpur Region",
    "divisionName": "Sitamarhi Division",
    "officeName": "Kharsan BO",
    "pinCode": "843327",
    "officeType": "BO",
    "district": "SITAMARHI",
    "latitude": "26.65405",
    "longitude": "85.4446"
  },
  {
    "stateName": "BIHAR",
    "circleName": "Bihar Circle",
    "regionName": "Muzaffarpur Region",
    "divisionName": "Sitamarhi Division",
    "officeName": "Narha BO",
    "pinCode": "843327",
    "officeType": "BO",
    "district": "SITAMARHI",
    "latitude": "26.6477132",
    "longitude": "85.4530245"
  },
  {
    "stateName": "BIHAR",
    "circleName": "Bihar Circle",
    "regionName": "Muzaffarpur Region",
    "divisionName": "Sitamarhi Division",
    "officeName": "PBasantpur BO",
    "pinCode": "843327",
    "officeType": "BO",
    "district": "SITAMARHI",
    "latitude": "26.6477192",
    "longitude": "85.453015"
  },
  {
    "stateName": "BIHAR",
    "circleName": "Bihar Circle",
    "regionName": "Muzaffarpur Region",
    "divisionName": "Sitamarhi Division",
    "officeName": "RGanguly BO",
    "pinCode": "843327",
    "officeType": "BO",
    "district": "SITAMARHI",
    "latitude": "26.6444534",
    "longitude": "85.439157"
  },
  {
    "stateName": "BIHAR",
    "circleName": "Bihar Circle",
    "regionName": "Muzaffarpur Region",
    "divisionName": "Sitamarhi Division",
    "officeName": "Bhanaspatti BO",
    "pinCode": "843328",
    "officeType": "BO",
    "district": "SITAMARHI",
    "latitude": "26.3874877",
    "longitude": "85.5071359"
  },
  {
    "stateName": "BIHAR",
    "circleName": "Bihar Circle",
    "regionName": "Muzaffarpur Region",
    "divisionName": "Sitamarhi Division",
    "officeName": "CDharharwa BO",
    "pinCode": "843328",
    "officeType": "BO",
    "district": "MUZAFFARPUR",
    "latitude": "26.3874877",
    "longitude": "85.507136"
  },
  {
    "stateName": "BIHAR",
    "circleName": "Bihar Circle",
    "regionName": "Muzaffarpur Region",
    "divisionName": "Sitamarhi Division",
    "officeName": "Ghanshyampur BO",
    "pinCode": "843328",
    "officeType": "BO",
    "district": "MUZAFFARPUR",
    "latitude": "26.411196",
    "longitude": "85.5199949"
  },
  {
    "stateName": "BIHAR",
    "circleName": "Bihar Circle",
    "regionName": "Muzaffarpur Region",
    "divisionName": "Sitamarhi Division",
    "officeName": "MMorsand BO",
    "pinCode": "843328",
    "officeType": "BO",
    "district": "SITAMARHI",
    "latitude": "26.411156",
    "longitude": "85.5199938"
  },
  {
    "stateName": "BIHAR",
    "circleName": "Bihar Circle",
    "regionName": "Muzaffarpur Region",
    "divisionName": "Sitamarhi Division",
    "officeName": "Rain Shankar BO",
    "pinCode": "843328",
    "officeType": "BO",
    "district": "SITAMARHI",
    "latitude": "26.6698",
    "longitude": "85.48695"
  },
  {
    "stateName": "BIHAR",
    "circleName": "Bihar Circle",
    "regionName": "Muzaffarpur Region",
    "divisionName": "Sitamarhi Division",
    "officeName": "D Katasari BO",
    "pinCode": "843329",
    "officeType": "BO",
    "district": "SHEOHAR",
    "latitude": "26.57",
    "longitude": "85.2299"
  },
  {
    "stateName": "BIHAR",
    "circleName": "Bihar Circle",
    "regionName": "Muzaffarpur Region",
    "divisionName": "Sitamarhi Division",
    "officeName": "Fatahapur BO",
    "pinCode": "843329",
    "officeType": "BO",
    "district": "SHEOHAR",
    "latitude": "26.5766",
    "longitude": "85.2299"
  },
  {
    "stateName": "BIHAR",
    "circleName": "Bihar Circle",
    "regionName": "Muzaffarpur Region",
    "divisionName": "Sitamarhi Division",
    "officeName": "H Dumma BO",
    "pinCode": "843329",
    "officeType": "BO",
    "district": "SHEOHAR",
    "latitude": "26.5866",
    "longitude": "85.2399"
  },
  {
    "stateName": "BIHAR",
    "circleName": "Bihar Circle",
    "regionName": "Muzaffarpur Region",
    "divisionName": "Sitamarhi Division",
    "officeName": "Kushahar BO",
    "pinCode": "843329",
    "officeType": "BO",
    "district": "SHEOHAR",
    "latitude": "26.5766",
    "longitude": "85.2299"
  },
  {
    "stateName": "BIHAR",
    "circleName": "Bihar Circle",
    "regionName": "Muzaffarpur Region",
    "divisionName": "Sitamarhi Division",
    "officeName": "M Chhatta BO",
    "pinCode": "843329",
    "officeType": "BO",
    "district": "SHEOHAR",
    "latitude": "26.5766",
    "longitude": "85.2299"
  },
  {
    "stateName": "BIHAR",
    "circleName": "Bihar Circle",
    "regionName": "Muzaffarpur Region",
    "divisionName": "Sitamarhi Division",
    "officeName": "Bariyarpur BO",
    "pinCode": "843302",
    "officeType": "BO",
    "district": "SITAMARHI",
    "latitude": "25.65",
    "longitude": "85.56"
  },
  {
    "stateName": "BIHAR",
    "circleName": "Bihar Circle",
    "regionName": "Muzaffarpur Region",
    "divisionName": "Sitamarhi Division",
    "officeName": "Harnahiya BO",
    "pinCode": "843302",
    "officeType": "BO",
    "district": "SITAMARHI",
    "latitude": "26.56",
    "longitude": "85.52"
  },
  {
    "stateName": "BIHAR",
    "circleName": "Bihar Circle",
    "regionName": "Muzaffarpur Region",
    "divisionName": "Sitamarhi Division",
    "officeName": "Koily BO",
    "pinCode": "843302",
    "officeType": "BO",
    "district": "SITAMARHI",
    "latitude": "26.56",
    "longitude": "85.52"
  },
  {
    "stateName": "BIHAR",
    "circleName": "Bihar Circle",
    "regionName": "Muzaffarpur Region",
    "divisionName": "Sitamarhi Division",
    "officeName": "Paktola BO",
    "pinCode": "843302",
    "officeType": "BO",
    "district": "SITAMARHI",
    "latitude": "26.56",
    "longitude": "85.52"
  },
  {
    "stateName": "BIHAR",
    "circleName": "Bihar Circle",
    "regionName": "Muzaffarpur Region",
    "divisionName": "Sitamarhi Division",
    "officeName": "Parsauni BO",
    "pinCode": "843302",
    "officeType": "BO",
    "district": "SITAMARHI",
    "latitude": "26.56",
    "longitude": "85.52"
  },
  {
    "stateName": "BIHAR",
    "circleName": "Bihar Circle",
    "regionName": "Muzaffarpur Region",
    "divisionName": "Sitamarhi Division",
    "officeName": "Rajopatti BO",
    "pinCode": "843302",
    "officeType": "BO",
    "district": "SITAMARHI",
    "latitude": "26.56",
    "longitude": "85.52"
  },
  {
    "stateName": "BIHAR",
    "circleName": "Bihar Circle",
    "regionName": "Muzaffarpur Region",
    "divisionName": "Sitamarhi Division",
    "officeName": "Araria BO",
    "pinCode": "843330",
    "officeType": "BO",
    "district": "SITAMARHI",
    "latitude": "26.8429",
    "longitude": "85.58491"
  },
  {
    "stateName": "BIHAR",
    "circleName": "Bihar Circle",
    "regionName": "Muzaffarpur Region",
    "divisionName": "Sitamarhi Division",
    "officeName": "PRajwara BO",
    "pinCode": "843330",
    "officeType": "BO",
    "district": "SITAMARHI",
    "latitude": "26.8429",
    "longitude": "85.58491"
  },
  {
    "stateName": "BIHAR",
    "circleName": "Bihar Circle",
    "regionName": "Muzaffarpur Region",
    "divisionName": "Sitamarhi Division",
    "officeName": "Barahi BO",
    "pinCode": "843331",
    "officeType": "BO",
    "district": "SITAMARHI",
    "latitude": "26.65405",
    "longitude": "85.4446"
  },
  {
    "stateName": "BIHAR",
    "circleName": "Bihar Circle",
    "regionName": "Muzaffarpur Region",
    "divisionName": "Sitamarhi Division",
    "officeName": "Bhitha Bazar BO",
    "pinCode": "843331",
    "officeType": "BO",
    "district": "SITAMARHI",
    "latitude": "26.3833",
    "longitude": "85.4446"
  },
  {
    "stateName": "BIHAR",
    "circleName": "Bihar Circle",
    "regionName": "Muzaffarpur Region",
    "divisionName": "Sitamarhi Division",
    "officeName": "H Dularpur BO",
    "pinCode": "843331",
    "officeType": "BO",
    "district": "SITAMARHI",
    "latitude": "17.3737",
    "longitude": "78.4898"
  },
  {
    "stateName": "BIHAR",
    "circleName": "Bihar Circle",
    "regionName": "Muzaffarpur Region",
    "divisionName": "Sitamarhi Division",
    "officeName": "Narha BO",
    "pinCode": "843331",
    "officeType": "BO",
    "district": "SITAMARHI",
    "latitude": "26.64",
    "longitude": "85.45"
  },
  {
    "stateName": "BIHAR",
    "circleName": "Bihar Circle",
    "regionName": "Muzaffarpur Region",
    "divisionName": "Siwan Division",
    "officeName": "Bhathwa BO",
    "pinCode": "841441",
    "officeType": "BO",
    "district": "GOPALGANJ",
    "latitude": "26.4664",
    "longitude": "84.4332"
  },
  {
    "stateName": "BIHAR",
    "circleName": "Bihar Circle",
    "regionName": "Muzaffarpur Region",
    "divisionName": "Siwan Division",
    "officeName": "Khalgaon BO",
    "pinCode": "841441",
    "officeType": "BO",
    "district": "GOPALGANJ",
    "latitude": "26.4667",
    "longitude": "84.4332"
  },
  {
    "stateName": "BIHAR",
    "circleName": "Bihar Circle",
    "regionName": "Muzaffarpur Region",
    "divisionName": "Siwan Division",
    "officeName": "Semaria BO",
    "pinCode": "841441",
    "officeType": "BO",
    "district": "GOPALGANJ",
    "latitude": "26.4667",
    "longitude": "84.4332"
  },
  {
    "stateName": "BIHAR",
    "circleName": "Bihar Circle",
    "regionName": "Muzaffarpur Region",
    "divisionName": "Siwan Division",
    "officeName": "Batardey BO",
    "pinCode": "841405",
    "officeType": "BO",
    "district": "GOPALGANJ",
    "latitude": "26.4059",
    "longitude": "84.5903"
  },
  {
    "stateName": "BIHAR",
    "circleName": "Bihar Circle",
    "regionName": "Muzaffarpur Region",
    "divisionName": "Siwan Division",
    "officeName": "Sareya Narendra BO",
    "pinCode": "841405",
    "officeType": "BO",
    "district": "GOPALGANJ",
    "latitude": "26.4059",
    "longitude": "84.5903"
  },
  {
    "stateName": "BIHAR",
    "circleName": "Bihar Circle",
    "regionName": "Muzaffarpur Region",
    "divisionName": "Siwan Division",
    "officeName": "Sikatiya Sridhar Sahi BO",
    "pinCode": "841405",
    "officeType": "BO",
    "district": "GOPALGANJ",
    "latitude": "26.4059",
    "longitude": "84.5903"
  },
  {
    "stateName": "BIHAR",
    "circleName": "Bihar Circle",
    "regionName": "Muzaffarpur Region",
    "divisionName": "Siwan Division",
    "officeName": "Bhagwatparsa BO",
    "pinCode": "841425",
    "officeType": "BO",
    "district": "GOPALGANJ",
    "latitude": "84.346317",
    "longitude": "26.569926"
  },
  {
    "stateName": "BIHAR",
    "circleName": "Bihar Circle",
    "regionName": "Muzaffarpur Region",
    "divisionName": "Siwan Division",
    "officeName": "Chakarwakhas BO",
    "pinCode": "841426",
    "officeType": "BO",
    "district": "GOPALGANJ",
    "latitude": "26.4487",
    "longitude": "84.1092"
  },
  {
    "stateName": "BIHAR",
    "circleName": "Bihar Circle",
    "regionName": "Muzaffarpur Region",
    "divisionName": "Siwan Division",
    "officeName": "Chhitauna BO",
    "pinCode": "841426",
    "officeType": "BO",
    "district": "GOPALGANJ",
    "latitude": "26.3352",
    "longitude": "84.33"
  },
  {
    "stateName": "BIHAR",
    "circleName": "Bihar Circle",
    "regionName": "Muzaffarpur Region",
    "divisionName": "Siwan Division",
    "officeName": "Rudalpur BO",
    "pinCode": "841426",
    "officeType": "BO",
    "district": "GOPALGANJ",
    "latitude": "26.3352",
    "longitude": "84.33"
  },
  {
    "stateName": "BIHAR",
    "circleName": "Bihar Circle",
    "regionName": "Muzaffarpur Region",
    "divisionName": "Siwan Division",
    "officeName": "Dangsi BO",
    "pinCode": "841407",
    "officeType": "BO",
    "district": "GOPALGANJ",
    "latitude": "26.5404",
    "longitude": "84.4243"
  },
  {
    "stateName": "BIHAR",
    "circleName": "Bihar Circle",
    "regionName": "Muzaffarpur Region",
    "divisionName": "Siwan Division",
    "officeName": "Hakam BO",
    "pinCode": "841407",
    "officeType": "BO",
    "district": "GOPALGANJ",
    "latitude": "26.2615",
    "longitude": "84.7446"
  },
  {
    "stateName": "BIHAR",
    "circleName": "Bihar Circle",
    "regionName": "Muzaffarpur Region",
    "divisionName": "Siwan Division",
    "officeName": "Kashi Tengrahi BO",
    "pinCode": "841407",
    "officeType": "BO",
    "district": "GOPALGANJ",
    "latitude": "26.2615",
    "longitude": "84.7446"
  },
  {
    "stateName": "BIHAR",
    "circleName": "Bihar Circle",
    "regionName": "Muzaffarpur Region",
    "divisionName": "Siwan Division",
    "officeName": "Reotith BO",
    "pinCode": "841407",
    "officeType": "BO",
    "district": "GOPALGANJ",
    "latitude": "26.2615",
    "longitude": "84.7446"
  },
  {
    "stateName": "BIHAR",
    "circleName": "Bihar Circle",
    "regionName": "Muzaffarpur Region",
    "divisionName": "Siwan Division",
    "officeName": "Sher BO",
    "pinCode": "841407",
    "officeType": "BO",
    "district": "GOPALGANJ",
    "latitude": "26.5404",
    "longitude": "84.4234"
  },
  {
    "stateName": "BIHAR",
    "circleName": "Bihar Circle",
    "regionName": "Muzaffarpur Region",
    "divisionName": "Siwan Division",
    "officeName": "Talimapur BO",
    "pinCode": "841407",
    "officeType": "BO",
    "district": "GOPALGANJ",
    "latitude": "26.5404",
    "longitude": "84.4234"
  },
  {
    "stateName": "BIHAR",
    "circleName": "Bihar Circle",
    "regionName": "Muzaffarpur Region",
    "divisionName": "Siwan Division",
    "officeName": "Gausia BO",
    "pinCode": "841427",
    "officeType": "BO",
    "district": "GOPALGANJ",
    "latitude": "26.4685",
    "longitude": "84.4433"
  },
  {
    "stateName": "BIHAR",
    "circleName": "Bihar Circle",
    "regionName": "Muzaffarpur Region",
    "divisionName": "Siwan Division",
    "officeName": "Dumaria Dhamapakar BO",
    "pinCode": "841428",
    "officeType": "BO",
    "district": "GOPALGANJ",
    "latitude": "26.569926",
    "longitude": "84.346317"
  },
  {
    "stateName": "BIHAR",
    "circleName": "Bihar Circle",
    "regionName": "Muzaffarpur Region",
    "divisionName": "Siwan Division",
    "officeName": "Parwan BO",
    "pinCode": "841428",
    "officeType": "BO",
    "district": "GOPALGANJ",
    "latitude": "26.569926",
    "longitude": "84.346317"
  },
  {
    "stateName": "BIHAR",
    "circleName": "Bihar Circle",
    "regionName": "Muzaffarpur Region",
    "divisionName": "Siwan Division",
    "officeName": "Pasrama BO",
    "pinCode": "841428",
    "officeType": "BO",
    "district": "GOPALGANJ",
    "latitude": "26.569926",
    "longitude": "84.346317"
  },
  {
    "stateName": "BIHAR",
    "circleName": "Bihar Circle",
    "regionName": "Muzaffarpur Region",
    "divisionName": "Siwan Division",
    "officeName": "RP Tengrahi BO",
    "pinCode": "841428",
    "officeType": "BO",
    "district": "GOPALGANJ",
    "latitude": "26.569926",
    "longitude": "84.346317"
  },
  {
    "stateName": "BIHAR",
    "circleName": "Bihar Circle",
    "regionName": "Muzaffarpur Region",
    "divisionName": "Siwan Division",
    "officeName": "VS Mill BO",
    "pinCode": "841428",
    "officeType": "BO",
    "district": "GOPALGANJ",
    "latitude": "26.569926",
    "longitude": "84.346317"
  },
  {
    "stateName": "BIHAR",
    "circleName": "Bihar Circle",
    "regionName": "Muzaffarpur Region",
    "divisionName": "Siwan Division",
    "officeName": "BR Bhan BO",
    "pinCode": "841436",
    "officeType": "BO",
    "district": "GOPALGANJ",
    "latitude": "26.3624534",
    "longitude": "84.3042333"
  },
  {
    "stateName": "BIHAR",
    "circleName": "Bihar Circle",
    "regionName": "Muzaffarpur Region",
    "divisionName": "Siwan Division",
    "officeName": "GS Manjha BO",
    "pinCode": "841436",
    "officeType": "BO",
    "district": "GOPALGANJ",
    "latitude": "26.3678",
    "longitude": "84.2547"
  },
  {
    "stateName": "BIHAR",
    "circleName": "Bihar Circle",
    "regionName": "Muzaffarpur Region",
    "divisionName": "Siwan Division",
    "officeName": "Peoli BO",
    "pinCode": "841436",
    "officeType": "BO",
    "district": "GOPALGANJ",
    "latitude": "26.353984",
    "longitude": "84.297494"
  },
  {
    "stateName": "BIHAR",
    "circleName": "Bihar Circle",
    "regionName": "Muzaffarpur Region",
    "divisionName": "Siwan Division",
    "officeName": "Paltuhatta BO",
    "pinCode": "841413",
    "officeType": "BO",
    "district": "SIWAN",
    "latitude": "26.3079",
    "longitude": "84.5668"
  },
  {
    "stateName": "BIHAR",
    "circleName": "Bihar Circle",
    "regionName": "Muzaffarpur Region",
    "divisionName": "Siwan Division",
    "officeName": "Belhi Khas BO",
    "pinCode": "841437",
    "officeType": "BO",
    "district": "GOPALGANJ",
    "latitude": "26.5631",
    "longitude": "84.0796"
  },
  {
    "stateName": "BIHAR",
    "circleName": "Bihar Circle",
    "regionName": "Muzaffarpur Region",
    "divisionName": "Siwan Division",
    "officeName": "Salehpur BO",
    "pinCode": "841501",
    "officeType": "BO",
    "district": "GOPALGANJ",
    "latitude": "26.226972",
    "longitude": "84.8085"
  },
  {
    "stateName": "BIHAR",
    "circleName": "Bihar Circle",
    "regionName": "Muzaffarpur Region",
    "divisionName": "Siwan Division",
    "officeName": "Sepaya BO",
    "pinCode": "841501",
    "officeType": "BO",
    "district": "GOPALGANJ",
    "latitude": "26.5575",
    "longitude": "84.3305"
  },
  {
    "stateName": "BIHAR",
    "circleName": "Bihar Circle",
    "regionName": "Muzaffarpur Region",
    "divisionName": "Siwan Division",
    "officeName": "Koila Deva BO",
    "pinCode": "841438",
    "officeType": "BO",
    "district": "GOPALGANJ",
    "latitude": "26.3696",
    "longitude": "84.3358"
  },
  {
    "stateName": "BIHAR",
    "circleName": "Bihar Circle",
    "regionName": "Muzaffarpur Region",
    "divisionName": "Siwan Division",
    "officeName": "Line Bazar BO",
    "pinCode": "841438",
    "officeType": "BO",
    "district": "GOPALGANJ",
    "latitude": "26.36",
    "longitude": "84.33"
  },
  {
    "stateName": "BIHAR",
    "circleName": "Bihar Circle",
    "regionName": "Muzaffarpur Region",
    "divisionName": "Siwan Division",
    "officeName": "Paikauli Baddo BO",
    "pinCode": "841438",
    "officeType": "BO",
    "district": "GOPALGANJ",
    "latitude": "26.2269722",
    "longitude": "84.8085"
  },
  {
    "stateName": "BIHAR",
    "circleName": "Bihar Circle",
    "regionName": "Muzaffarpur Region",
    "divisionName": "Siwan Division",
    "officeName": "Sakhekhas BO",
    "pinCode": "841438",
    "officeType": "BO",
    "district": "GOPALGANJ",
    "latitude": "26.3352",
    "longitude": "84.8085"
  },
  {
    "stateName": "BIHAR",
    "circleName": "Bihar Circle",
    "regionName": "Muzaffarpur Region",
    "divisionName": "Siwan Division",
    "officeName": "Sawana BO",
    "pinCode": "841438",
    "officeType": "BO",
    "district": "GOPALGANJ",
    "latitude": "26.2269722",
    "longitude": "84.8085"
  },
  {
    "stateName": "BIHAR",
    "circleName": "Bihar Circle",
    "regionName": "Muzaffarpur Region",
    "divisionName": "Siwan Division",
    "officeName": "Sawraje BO",
    "pinCode": "841438",
    "officeType": "BO",
    "district": "GOPALGANJ",
    "latitude": "26.3352",
    "longitude": "84.3564167"
  },
  {
    "stateName": "BIHAR",
    "circleName": "Bihar Circle",
    "regionName": "Muzaffarpur Region",
    "divisionName": "Siwan Division",
    "officeName": "Balthra BO",
    "pinCode": "841503",
    "officeType": "BO",
    "district": "GOPALGANJ",
    "latitude": "26.5913",
    "longitude": "84.3115"
  },
  {
    "stateName": "BIHAR",
    "circleName": "Bihar Circle",
    "regionName": "Muzaffarpur Region",
    "divisionName": "Siwan Division",
    "officeName": "Bodhachhapar BO",
    "pinCode": "841503",
    "officeType": "BO",
    "district": "GOPALGANJ",
    "latitude": "26.5913",
    "longitude": "84.3115"
  },
  {
    "stateName": "BIHAR",
    "circleName": "Bihar Circle",
    "regionName": "Muzaffarpur Region",
    "divisionName": "Siwan Division",
    "officeName": "Sanhaula BO",
    "pinCode": "841503",
    "officeType": "BO",
    "district": "GOPALGANJ",
    "latitude": "26.5913",
    "longitude": "84.3115"
  },
  {
    "stateName": "BIHAR",
    "circleName": "Bihar Circle",
    "regionName": "Muzaffarpur Region",
    "divisionName": "Siwan Division",
    "officeName": "Semra Bazar BO",
    "pinCode": "841503",
    "officeType": "BO",
    "district": "GOPALGANJ",
    "latitude": "26.5913",
    "longitude": "84.3115"
  },
  {
    "stateName": "BIHAR",
    "circleName": "Bihar Circle",
    "regionName": "Muzaffarpur Region",
    "divisionName": "Siwan Division",
    "officeName": "Thakrahan BO",
    "pinCode": "841503",
    "officeType": "BO",
    "district": "GOPALGANJ",
    "latitude": "26.5913",
    "longitude": "84.3115"
  },
  {
    "stateName": "BIHAR",
    "circleName": "Bihar Circle",
    "regionName": "Muzaffarpur Region",
    "divisionName": "Siwan Division",
    "officeName": "Katalpur BO",
    "pinCode": "841420",
    "officeType": "BO",
    "district": "GOPALGANJ",
    "latitude": "26.1803",
    "longitude": "84.8085"
  },
  {
    "stateName": "BIHAR",
    "circleName": "Bihar Circle",
    "regionName": "Muzaffarpur Region",
    "divisionName": "Siwan Division",
    "officeName": "Dumaria BO",
    "pinCode": "841423",
    "officeType": "BO",
    "district": "GOPALGANJ",
    "latitude": "26.3352",
    "longitude": "84.6662"
  },
  {
    "stateName": "BIHAR",
    "circleName": "Bihar Circle",
    "regionName": "Muzaffarpur Region",
    "divisionName": "Siwan Division",
    "officeName": "Manbodhparsauni BO",
    "pinCode": "841440",
    "officeType": "BO",
    "district": "GOPALGANJ",
    "latitude": "26.4368",
    "longitude": "84.3989"
  },
  {
    "stateName": "BIHAR",
    "circleName": "Bihar Circle",
    "regionName": "Muzaffarpur Region",
    "divisionName": "Siwan Division",
    "officeName": "Bhawrajpur BO",
    "pinCode": "841231",
    "officeType": "BO",
    "district": "SIWAN",
    "latitude": "26.1095277",
    "longitude": "84.2933611"
  },
  {
    "stateName": "BIHAR",
    "circleName": "Bihar Circle",
    "regionName": "Muzaffarpur Region",
    "divisionName": "Siwan Division",
    "officeName": "Kherai BO",
    "pinCode": "841231",
    "officeType": "BO",
    "district": "SIWAN",
    "latitude": "26.1095277",
    "longitude": "84.2933611"
  },
  {
    "stateName": "BIHAR",
    "circleName": "Bihar Circle",
    "regionName": "Muzaffarpur Region",
    "divisionName": "Siwan Division",
    "officeName": "Alapur BO",
    "pinCode": "841286",
    "officeType": "BO",
    "district": "SIWAN",
    "latitude": "26.2269722",
    "longitude": "84.3564167"
  },
  {
    "stateName": "BIHAR",
    "circleName": "Bihar Circle",
    "regionName": "Muzaffarpur Region",
    "divisionName": "Siwan Division",
    "officeName": "Rafipur BO",
    "pinCode": "841286",
    "officeType": "BO",
    "district": "SIWAN",
    "latitude": "26.2269722",
    "longitude": "84.3564167"
  },
  {
    "stateName": "BIHAR",
    "circleName": "Bihar Circle",
    "regionName": "Muzaffarpur Region",
    "divisionName": "Siwan Division",
    "officeName": "BAHADURPUR BAZAR BO",
    "pinCode": "841232",
    "officeType": "BO",
    "district": "SIWAN",
    "latitude": "26.3194166",
    "longitude": "84.4588055"
  },
  {
    "stateName": "BIHAR",
    "circleName": "Bihar Circle",
    "regionName": "Muzaffarpur Region",
    "divisionName": "Siwan Division",
    "officeName": "BHALUAN BO",
    "pinCode": "841232",
    "officeType": "BO",
    "district": "SIWAN",
    "latitude": "26.3194166",
    "longitude": "84.4588055"
  },
  {
    "stateName": "BIHAR",
    "circleName": "Bihar Circle",
    "regionName": "Muzaffarpur Region",
    "divisionName": "Siwan Division",
    "officeName": "Chorma BO",
    "pinCode": "841406",
    "officeType": "BO",
    "district": "SIWAN",
    "latitude": "26.2269722",
    "longitude": "84.3564167"
  },
  {
    "stateName": "BIHAR",
    "circleName": "Bihar Circle",
    "regionName": "Muzaffarpur Region",
    "divisionName": "Siwan Division",
    "officeName": "Hussaipurnand BO",
    "pinCode": "841406",
    "officeType": "BO",
    "district": "SIWAN",
    "latitude": "26.2269722",
    "longitude": "84.3564167"
  },
  {
    "stateName": "BIHAR",
    "circleName": "Bihar Circle",
    "regionName": "Muzaffarpur Region",
    "divisionName": "Siwan Division",
    "officeName": "Bhikhampur BO",
    "pinCode": "841408",
    "officeType": "BO",
    "district": "SIWAN",
    "latitude": "26.1777",
    "longitude": "84.0821"
  },
  {
    "stateName": "BIHAR",
    "circleName": "Bihar Circle",
    "regionName": "Muzaffarpur Region",
    "divisionName": "Siwan Division",
    "officeName": "Chhitauli BO",
    "pinCode": "841203",
    "officeType": "BO",
    "district": "SIWAN",
    "latitude": "26.2269722",
    "longitude": "84.3564167"
  },
  {
    "stateName": "BIHAR",
    "circleName": "Bihar Circle",
    "regionName": "Muzaffarpur Region",
    "divisionName": "Siwan Division",
    "officeName": "Dighwalia BO",
    "pinCode": "841203",
    "officeType": "BO",
    "district": "SIWAN",
    "latitude": "26.2269722",
    "longitude": "84.3564167"
  },
  {
    "stateName": "BIHAR",
    "circleName": "Bihar Circle",
    "regionName": "Muzaffarpur Region",
    "divisionName": "Siwan Division",
    "officeName": "Nandamura BO",
    "pinCode": "841203",
    "officeType": "BO",
    "district": "SIWAN",
    "latitude": "26.2269722",
    "longitude": "84.3564167"
  },
  {
    "stateName": "BIHAR",
    "circleName": "Bihar Circle",
    "regionName": "Muzaffarpur Region",
    "divisionName": "Siwan Division",
    "officeName": "Ramgarh BO",
    "pinCode": "841203",
    "officeType": "BO",
    "district": "SIWAN",
    "latitude": "26.2269722",
    "longitude": "84.3564167"
  },
  {
    "stateName": "BIHAR",
    "circleName": "Bihar Circle",
    "regionName": "Muzaffarpur Region",
    "divisionName": "Siwan Division",
    "officeName": "Gauri BO",
    "pinCode": "841234",
    "officeType": "BO",
    "district": "SIWAN",
    "latitude": "26.0782",
    "longitude": "84.1307"
  },
  {
    "stateName": "BIHAR",
    "circleName": "Bihar Circle",
    "regionName": "Muzaffarpur Region",
    "divisionName": "Siwan Division",
    "officeName": "Sareyarampur BO",
    "pinCode": "841234",
    "officeType": "BO",
    "district": "SIWAN",
    "latitude": "26.0782",
    "longitude": "84.1307"
  },
  {
    "stateName": "BIHAR",
    "circleName": "Bihar Circle",
    "regionName": "Muzaffarpur Region",
    "divisionName": "Siwan Division",
    "officeName": "Harsardhanauti BO",
    "pinCode": "841233",
    "officeType": "BO",
    "district": "SIWAN",
    "latitude": "26.0911388",
    "longitude": "84.4615833"
  },
  {
    "stateName": "BIHAR",
    "circleName": "Bihar Circle",
    "regionName": "Muzaffarpur Region",
    "divisionName": "Siwan Division",
    "officeName": "PHarsar BO",
    "pinCode": "841233",
    "officeType": "BO",
    "district": "SIWAN",
    "latitude": "26.0911388",
    "longitude": "84.4615833"
  },
  {
    "stateName": "BIHAR",
    "circleName": "Bihar Circle",
    "regionName": "Muzaffarpur Region",
    "divisionName": "Siwan Division",
    "officeName": "Ramsapur BO",
    "pinCode": "841233",
    "officeType": "BO",
    "district": "SIWAN",
    "latitude": "26.0911388",
    "longitude": "84.4615833"
  },
  {
    "stateName": "BIHAR",
    "circleName": "Bihar Circle",
    "regionName": "Muzaffarpur Region",
    "divisionName": "Siwan Division",
    "officeName": "Rasulpur Tilouta BO",
    "pinCode": "841233",
    "officeType": "BO",
    "district": "SIWAN",
    "latitude": "26.0911388",
    "longitude": "84.4615833"
  },
  {
    "stateName": "BIHAR",
    "circleName": "Bihar Circle",
    "regionName": "Muzaffarpur Region",
    "divisionName": "Siwan Division",
    "officeName": "Belaon BO",
    "pinCode": "841235",
    "officeType": "BO",
    "district": "SIWAN",
    "latitude": "26.2269722",
    "longitude": "84.3564167"
  },
  {
    "stateName": "BIHAR",
    "circleName": "Bihar Circle",
    "regionName": "Muzaffarpur Region",
    "divisionName": "Siwan Division",
    "officeName": "Benusar Bujurg BO",
    "pinCode": "841227",
    "officeType": "BO",
    "district": "SIWAN",
    "latitude": "26.21991",
    "longitude": "84.35807"
  },
  {
    "stateName": "BIHAR",
    "circleName": "Bihar Circle",
    "regionName": "Muzaffarpur Region",
    "divisionName": "Siwan Division",
    "officeName": "Mahuwari BO",
    "pinCode": "841227",
    "officeType": "BO",
    "district": "SIWAN",
    "latitude": "26.21991",
    "longitude": "84.35807"
  },
  {
    "stateName": "BIHAR",
    "circleName": "Bihar Circle",
    "regionName": "Muzaffarpur Region",
    "divisionName": "Siwan Division",
    "officeName": "Bhithi BO",
    "pinCode": "841434",
    "officeType": "BO",
    "district": "SIWAN",
    "latitude": "26.2562",
    "longitude": "84.6034"
  },
  {
    "stateName": "BIHAR",
    "circleName": "Bihar Circle",
    "regionName": "Muzaffarpur Region",
    "divisionName": "Siwan Division",
    "officeName": "Marachhi BO",
    "pinCode": "841434",
    "officeType": "BO",
    "district": "SIWAN",
    "latitude": "26.2562",
    "longitude": "84.6034"
  },
  {
    "stateName": "BIHAR",
    "circleName": "Bihar Circle",
    "regionName": "Muzaffarpur Region",
    "divisionName": "Siwan Division",
    "officeName": "Sarari BO",
    "pinCode": "841434",
    "officeType": "BO",
    "district": "SIWAN",
    "latitude": "26.2562",
    "longitude": "84.6034"
  },
  {
    "stateName": "BIHAR",
    "circleName": "Bihar Circle",
    "regionName": "Muzaffarpur Region",
    "divisionName": "Siwan Division",
    "officeName": "Rajanpura BO",
    "pinCode": "841236",
    "officeType": "BO",
    "district": "SIWAN",
    "latitude": "26.076",
    "longitude": "84.3568"
  },
  {
    "stateName": "BIHAR",
    "circleName": "Bihar Circle",
    "regionName": "Muzaffarpur Region",
    "divisionName": "Siwan Division",
    "officeName": "Bhikhpur BO",
    "pinCode": "841237",
    "officeType": "BO",
    "district": "SIWAN",
    "latitude": "26.3352",
    "longitude": "84.8085"
  },
  {
    "stateName": "BIHAR",
    "circleName": "Bihar Circle",
    "regionName": "Muzaffarpur Region",
    "divisionName": "Siwan Division",
    "officeName": "Khawaspur BO",
    "pinCode": "841416",
    "officeType": "BO",
    "district": "SIWAN",
    "latitude": "26.2162",
    "longitude": "84.5132"
  },
  {
    "stateName": "BIHAR",
    "circleName": "Bihar Circle",
    "regionName": "Muzaffarpur Region",
    "divisionName": "Siwan Division",
    "officeName": "Lakari BO",
    "pinCode": "841447",
    "officeType": "BO",
    "district": "SIWAN",
    "latitude": "26.219622",
    "longitude": "84.356659"
  },
  {
    "stateName": "BIHAR",
    "circleName": "Bihar Circle",
    "regionName": "Muzaffarpur Region",
    "divisionName": "Siwan Division",
    "officeName": "Sarif Jalalpur BO",
    "pinCode": "841416",
    "officeType": "BO",
    "district": "SIWAN",
    "latitude": "26.2162",
    "longitude": "84.5132"
  },
  {
    "stateName": "BIHAR",
    "circleName": "Bihar Circle",
    "regionName": "Muzaffarpur Region",
    "divisionName": "Siwan Division",
    "officeName": "S Bangra BO",
    "pinCode": "841238",
    "officeType": "BO",
    "district": "SIWAN",
    "latitude": "26.2269722",
    "longitude": "84.3564167"
  },
  {
    "stateName": "BIHAR",
    "circleName": "Bihar Circle",
    "regionName": "Muzaffarpur Region",
    "divisionName": "Siwan Division",
    "officeName": "Hahwa BO",
    "pinCode": "841238",
    "officeType": "BO",
    "district": "SIWAN",
    "latitude": "26.2269722",
    "longitude": "84.3564167"
  },
  {
    "stateName": "BIHAR",
    "circleName": "Bihar Circle",
    "regionName": "Muzaffarpur Region",
    "divisionName": "Siwan Division",
    "officeName": "Jigrawan BO",
    "pinCode": "841238",
    "officeType": "BO",
    "district": "SIWAN",
    "latitude": "26.2269722",
    "longitude": "84.3564167"
  },
  {
    "stateName": "BIHAR",
    "circleName": "Bihar Circle",
    "regionName": "Muzaffarpur Region",
    "divisionName": "Siwan Division",
    "officeName": "Karsaut BO",
    "pinCode": "841238",
    "officeType": "BO",
    "district": "SIWAN",
    "latitude": "26.2269722",
    "longitude": "84.3564167"
  },
  {
    "stateName": "BIHAR",
    "circleName": "Bihar Circle",
    "regionName": "Muzaffarpur Region",
    "divisionName": "Siwan Division",
    "officeName": "Pakwalia BO",
    "pinCode": "841238",
    "officeType": "BO",
    "district": "SIWAN",
    "latitude": "26.2269722",
    "longitude": "84.3564167"
  },
  {
    "stateName": "BIHAR",
    "circleName": "Bihar Circle",
    "regionName": "Muzaffarpur Region",
    "divisionName": "Siwan Division",
    "officeName": "Pasnauli BO",
    "pinCode": "841238",
    "officeType": "BO",
    "district": "SIWAN",
    "latitude": "26.2269722",
    "longitude": "84.3564167"
  },
  {
    "stateName": "BIHAR",
    "circleName": "Bihar Circle",
    "regionName": "Muzaffarpur Region",
    "divisionName": "Siwan Division",
    "officeName": "Rishura BO",
    "pinCode": "841238",
    "officeType": "BO",
    "district": "SIWAN",
    "latitude": "26.2269722",
    "longitude": "84.3564167"
  },
  {
    "stateName": "BIHAR",
    "circleName": "Bihar Circle",
    "regionName": "Muzaffarpur Region",
    "divisionName": "Siwan Division",
    "officeName": "Rukundipur BO",
    "pinCode": "841238",
    "officeType": "BO",
    "district": "SIWAN",
    "latitude": "26.2269722",
    "longitude": "84.3564167"
  },
  {
    "stateName": "BIHAR",
    "circleName": "Bihar Circle",
    "regionName": "Muzaffarpur Region",
    "divisionName": "Siwan Division",
    "officeName": "Bishunpura Bazar BO",
    "pinCode": "841239",
    "officeType": "BO",
    "district": "SIWAN",
    "latitude": "26.2405833",
    "longitude": "84.1553888"
  },
  {
    "stateName": "BIHAR",
    "circleName": "Bihar Circle",
    "regionName": "Muzaffarpur Region",
    "divisionName": "Siwan Division",
    "officeName": "Bishwar BO",
    "pinCode": "841239",
    "officeType": "BO",
    "district": "SIWAN",
    "latitude": "26.2405833",
    "longitude": "84.1553888"
  },
  {
    "stateName": "BIHAR",
    "circleName": "Bihar Circle",
    "regionName": "Muzaffarpur Region",
    "divisionName": "Siwan Division",
    "officeName": "Jamuaon BO",
    "pinCode": "841239",
    "officeType": "BO",
    "district": "SIWAN",
    "latitude": "26.2405833",
    "longitude": "84.1553888"
  },
  {
    "stateName": "BIHAR",
    "circleName": "Bihar Circle",
    "regionName": "Muzaffarpur Region",
    "divisionName": "Siwan Division",
    "officeName": "Chakia BO",
    "pinCode": "841507",
    "officeType": "BO",
    "district": "SIWAN",
    "latitude": "26.219621",
    "longitude": "84.356659"
  },
  {
    "stateName": "BIHAR",
    "circleName": "Bihar Circle",
    "regionName": "Muzaffarpur Region",
    "divisionName": "Siwan Division",
    "officeName": "Singhauli BO",
    "pinCode": "841507",
    "officeType": "BO",
    "district": "SIWAN",
    "latitude": "26.219621",
    "longitude": "84.356659"
  },
  {
    "stateName": "BIHAR",
    "circleName": "Bihar Circle",
    "regionName": "Muzaffarpur Region",
    "divisionName": "Siwan Division",
    "officeName": "Sani Basantpur BO",
    "pinCode": "841439",
    "officeType": "BO",
    "district": "SIWAN",
    "latitude": "25.912",
    "longitude": "84.2128"
  },
  {
    "stateName": "BIHAR",
    "circleName": "Bihar Circle",
    "regionName": "Muzaffarpur Region",
    "divisionName": "Siwan Division",
    "officeName": "Badram BO",
    "pinCode": "841241",
    "officeType": "BO",
    "district": "SIWAN",
    "latitude": "26.1644722",
    "longitude": "84.4148611"
  },
  {
    "stateName": "BIHAR",
    "circleName": "Bihar Circle",
    "regionName": "Muzaffarpur Region",
    "divisionName": "Siwan Division",
    "officeName": "Gambhria BO",
    "pinCode": "841241",
    "officeType": "BO",
    "district": "SIWAN",
    "latitude": "26.1644722",
    "longitude": "84.4148611"
  },
  {
    "stateName": "BIHAR",
    "circleName": "Bihar Circle",
    "regionName": "Muzaffarpur Region",
    "divisionName": "Siwan Division",
    "officeName": "Sonbarsa BO",
    "pinCode": "841241",
    "officeType": "BO",
    "district": "SIWAN",
    "latitude": "26.1644722",
    "longitude": "84.4148611"
  },
  {
    "stateName": "BIHAR",
    "circleName": "Bihar Circle",
    "regionName": "Muzaffarpur Region",
    "divisionName": "Siwan Division",
    "officeName": "BPEkdanga BO",
    "pinCode": "841243",
    "officeType": "BO",
    "district": "SIWAN",
    "latitude": "84.4556",
    "longitude": "26.3502"
  },
  {
    "stateName": "BIHAR",
    "circleName": "Bihar Circle",
    "regionName": "Muzaffarpur Region",
    "divisionName": "Siwan Division",
    "officeName": "Barkamanjha BO",
    "pinCode": "841243",
    "officeType": "BO",
    "district": "SIWAN",
    "latitude": "26.3502",
    "longitude": "84.4556"
  },
  {
    "stateName": "BIHAR",
    "circleName": "Bihar Circle",
    "regionName": "Muzaffarpur Region",
    "divisionName": "Siwan Division",
    "officeName": "Kabirpur BO",
    "pinCode": "841243",
    "officeType": "BO",
    "district": "SIWAN",
    "latitude": "26.3502",
    "longitude": "84.4556"
  },
  {
    "stateName": "BIHAR",
    "circleName": "Bihar Circle",
    "regionName": "Muzaffarpur Region",
    "divisionName": "Siwan Division",
    "officeName": "Semaria BO",
    "pinCode": "841243",
    "officeType": "BO",
    "district": "SIWAN",
    "latitude": "26.3502",
    "longitude": "84.4556"
  },
  {
    "stateName": "BIHAR",
    "circleName": "Bihar Circle",
    "regionName": "Muzaffarpur Region",
    "divisionName": "Siwan Division",
    "officeName": "Sirisia BO",
    "pinCode": "841243",
    "officeType": "BO",
    "district": "SIWAN",
    "latitude": "26.3502",
    "longitude": "84.4556"
  },
  {
    "stateName": "BIHAR",
    "circleName": "Bihar Circle",
    "regionName": "Muzaffarpur Region",
    "divisionName": "Siwan Division",
    "officeName": "Amlori BO",
    "pinCode": "841228",
    "officeType": "BO",
    "district": "SIWAN",
    "latitude": "84.3634",
    "longitude": "84.3634"
  },
  {
    "stateName": "BIHAR",
    "circleName": "Bihar Circle",
    "regionName": "Muzaffarpur Region",
    "divisionName": "Siwan Division",
    "officeName": "Bhantapokhar BO",
    "pinCode": "841228",
    "officeType": "BO",
    "district": "SIWAN",
    "latitude": "84.3634",
    "longitude": "84.3634"
  },
  {
    "stateName": "BIHAR",
    "circleName": "Bihar Circle",
    "regionName": "Muzaffarpur Region",
    "divisionName": "Siwan Division",
    "officeName": "Hardia BO",
    "pinCode": "841228",
    "officeType": "BO",
    "district": "SIWAN",
    "latitude": "84.3634",
    "longitude": "84.3634"
  },
  {
    "stateName": "BIHAR",
    "circleName": "Bihar Circle",
    "regionName": "Muzaffarpur Region",
    "divisionName": "Siwan Division",
    "officeName": "Markan BO",
    "pinCode": "841228",
    "officeType": "BO",
    "district": "SIWAN",
    "latitude": "84.3634",
    "longitude": "84.3634"
  },
  {
    "stateName": "BIHAR",
    "circleName": "Bihar Circle",
    "regionName": "Muzaffarpur Region",
    "divisionName": "Siwan Division",
    "officeName": "Rasulpur Chakri BO",
    "pinCode": "841244",
    "officeType": "BO",
    "district": "SIWAN",
    "latitude": "26.219621",
    "longitude": "84.356659"
  },
  {
    "stateName": "BIHAR",
    "circleName": "Bihar Circle",
    "regionName": "Muzaffarpur Region",
    "divisionName": "Siwan Division",
    "officeName": "Chaukihasan BO",
    "pinCode": "841506",
    "officeType": "BO",
    "district": "SIWAN",
    "latitude": "26.2209722",
    "longitude": "84.4911944"
  },
  {
    "stateName": "BIHAR",
    "circleName": "Bihar Circle",
    "regionName": "Muzaffarpur Region",
    "divisionName": "Siwan Division",
    "officeName": "Jalalpur BO",
    "pinCode": "841506",
    "officeType": "BO",
    "district": "SIWAN",
    "latitude": "26.2209722",
    "longitude": "84.4911944"
  },
  {
    "stateName": "BIHAR",
    "circleName": "Bihar Circle",
    "regionName": "Muzaffarpur Region",
    "divisionName": "Siwan Division",
    "officeName": "Shiopur Sakra BO",
    "pinCode": "841245",
    "officeType": "BO",
    "district": "SIWAN",
    "latitude": "26.1979166",
    "longitude": "84.25525"
  },
  {
    "stateName": "BIHAR",
    "circleName": "Bihar Circle",
    "regionName": "Muzaffarpur Region",
    "divisionName": "West Champaran Division",
    "officeName": "Lagunaha BO",
    "pinCode": "845101",
    "officeType": "BO",
    "district": "PASHCHIM CHAMPARAN",
    "latitude": "27.0173697",
    "longitude": "84.230514"
  },
  {
    "stateName": "BIHAR",
    "circleName": "Bihar Circle",
    "regionName": "Muzaffarpur Region",
    "divisionName": "West Champaran Division",
    "officeName": "Mehura BO",
    "pinCode": "845101",
    "officeType": "BO",
    "district": "PASHCHIM CHAMPARAN",
    "latitude": "27.0907818",
    "longitude": "84.1975743"
  },
  {
    "stateName": "BIHAR",
    "circleName": "Bihar Circle",
    "regionName": "Muzaffarpur Region",
    "divisionName": "West Champaran Division",
    "officeName": "Piparia BO",
    "pinCode": "845101",
    "officeType": "BO",
    "district": "PASHCHIM CHAMPARAN",
    "latitude": "27.088087",
    "longitude": "84.1545605"
  },
  {
    "stateName": "BIHAR",
    "circleName": "Bihar Circle",
    "regionName": "Muzaffarpur Region",
    "divisionName": "West Champaran Division",
    "officeName": "Dhum Nagar B.O",
    "pinCode": "845439",
    "officeType": "BO",
    "district": "PASHCHIM CHAMPARAN",
    "latitude": "26.7841721",
    "longitude": "84.5107734"
  },
  {
    "stateName": "BIHAR",
    "circleName": "Bihar Circle",
    "regionName": "Muzaffarpur Region",
    "divisionName": "West Champaran Division",
    "officeName": "Banu Chhapar B.O",
    "pinCode": "845439",
    "officeType": "BO",
    "district": "PASHCHIM CHAMPARAN",
    "latitude": "26.8119898",
    "longitude": "84.5103993"
  },
  {
    "stateName": "BIHAR",
    "circleName": "Bihar Circle",
    "regionName": "Muzaffarpur Region",
    "divisionName": "West Champaran Division",
    "officeName": "Bettiah Dih B.O",
    "pinCode": "845439",
    "officeType": "BO",
    "district": "PASHCHIM CHAMPARAN",
    "latitude": "26.8322011",
    "longitude": "84.5139216"
  },
  {
    "stateName": "BIHAR",
    "circleName": "Bihar Circle",
    "regionName": "Muzaffarpur Region",
    "divisionName": "West Champaran Division",
    "officeName": "Mahna Gani B.O",
    "pinCode": "845439",
    "officeType": "BO",
    "district": "PASHCHIM CHAMPARAN",
    "latitude": "26.8260757",
    "longitude": "84.5877183"
  },
  {
    "stateName": "BIHAR",
    "circleName": "Bihar Circle",
    "regionName": "Muzaffarpur Region",
    "divisionName": "West Champaran Division",
    "officeName": "Belwa BO",
    "pinCode": "845449",
    "officeType": "BO",
    "district": "PASHCHIM CHAMPARAN",
    "latitude": "27.0419593",
    "longitude": "84.4041343"
  },
  {
    "stateName": "BIHAR",
    "circleName": "Bihar Circle",
    "regionName": "Muzaffarpur Region",
    "divisionName": "West Champaran Division",
    "officeName": "Puraina Gosai BO",
    "pinCode": "845449",
    "officeType": "BO",
    "district": "PASHCHIM CHAMPARAN",
    "latitude": "26.9445569",
    "longitude": "84.522556"
  },
  {
    "stateName": "BIHAR",
    "circleName": "Bihar Circle",
    "regionName": "Muzaffarpur Region",
    "divisionName": "West Champaran Division",
    "officeName": "Chauhatta BO",
    "pinCode": "845451",
    "officeType": "BO",
    "district": "PASHCHIM CHAMPARAN",
    "latitude": "27.1421542",
    "longitude": "84.5287722"
  },
  {
    "stateName": "BIHAR",
    "circleName": "Bihar Circle",
    "regionName": "Muzaffarpur Region",
    "divisionName": "West Champaran Division",
    "officeName": "Bagahi BO",
    "pinCode": "845103",
    "officeType": "BO",
    "district": "PASHCHIM CHAMPARAN",
    "latitude": "27.1518399",
    "longitude": "84.3292243"
  },
  {
    "stateName": "BIHAR",
    "circleName": "Bihar Circle",
    "regionName": "Muzaffarpur Region",
    "divisionName": "West Champaran Division",
    "officeName": "Dianmarawa BO",
    "pinCode": "845103",
    "officeType": "BO",
    "district": "PASHCHIM CHAMPARAN",
    "latitude": "27.1518399",
    "longitude": "84.3292243"
  },
  {
    "stateName": "BIHAR",
    "circleName": "Bihar Circle",
    "regionName": "Muzaffarpur Region",
    "divisionName": "West Champaran Division",
    "officeName": "Dumaria Estate BO",
    "pinCode": "845103",
    "officeType": "BO",
    "district": "PASHCHIM CHAMPARAN",
    "latitude": "27.1163092",
    "longitude": "84.3568338"
  },
  {
    "stateName": "BIHAR",
    "circleName": "Bihar Circle",
    "regionName": "Muzaffarpur Region",
    "divisionName": "West Champaran Division",
    "officeName": "Murali BO",
    "pinCode": "845103",
    "officeType": "BO",
    "district": "PASHCHIM CHAMPARAN",
    "latitude": "27.0995601",
    "longitude": "84.367786"
  },
  {
    "stateName": "BIHAR",
    "circleName": "Bihar Circle",
    "regionName": "Muzaffarpur Region",
    "divisionName": "West Champaran Division",
    "officeName": "Ahwar Shaikh BO",
    "pinCode": "845459",
    "officeType": "BO",
    "district": "PASHCHIM CHAMPARAN",
    "latitude": "26.713032",
    "longitude": "84.5966293"
  },
  {
    "stateName": "BIHAR",
    "circleName": "Bihar Circle",
    "regionName": "Muzaffarpur Region",
    "divisionName": "West Champaran Division",
    "officeName": "Amwa Majhar BO",
    "pinCode": "845459",
    "officeType": "BO",
    "district": "PASHCHIM CHAMPARAN",
    "latitude": "26.6891442",
    "longitude": "84.5785528"
  },
  {
    "stateName": "BIHAR",
    "circleName": "Bihar Circle",
    "regionName": "Muzaffarpur Region",
    "divisionName": "West Champaran Division",
    "officeName": "Bishabhar Pur BO",
    "pinCode": "845459",
    "officeType": "BO",
    "district": "PASHCHIM CHAMPARAN",
    "latitude": "26.7180239",
    "longitude": "84.5654567"
  },
  {
    "stateName": "BIHAR",
    "circleName": "Bihar Circle",
    "regionName": "Muzaffarpur Region",
    "divisionName": "West Champaran Division",
    "officeName": "Bisunpura BO",
    "pinCode": "845459",
    "officeType": "BO",
    "district": "PASHCHIM CHAMPARAN",
    "latitude": "26.7452783",
    "longitude": "84.5484275"
  },
  {
    "stateName": "BIHAR",
    "circleName": "Bihar Circle",
    "regionName": "Muzaffarpur Region",
    "divisionName": "West Champaran Division",
    "officeName": "Jagarnath Pur BO",
    "pinCode": "845459",
    "officeType": "BO",
    "district": "PASHCHIM CHAMPARAN",
    "latitude": "26.7499142",
    "longitude": "80.5452339"
  },
  {
    "stateName": "BIHAR",
    "circleName": "Bihar Circle",
    "regionName": "Muzaffarpur Region",
    "divisionName": "West Champaran Division",
    "officeName": "Dudhiawa BO",
    "pinCode": "845452",
    "officeType": "BO",
    "district": "PASHCHIM CHAMPARAN",
    "latitude": "26.633213",
    "longitude": "84.5759338"
  },
  {
    "stateName": "BIHAR",
    "circleName": "Bihar Circle",
    "regionName": "Muzaffarpur Region",
    "divisionName": "West Champaran Division",
    "officeName": "Jaralpur Dih BO",
    "pinCode": "845452",
    "officeType": "BO",
    "district": "PASHCHIM CHAMPARAN",
    "latitude": "26.8484241",
    "longitude": "84.3331693"
  },
  {
    "stateName": "BIHAR",
    "circleName": "Bihar Circle",
    "regionName": "Muzaffarpur Region",
    "divisionName": "West Champaran Division",
    "officeName": "Nawalpur BO",
    "pinCode": "845452",
    "officeType": "BO",
    "district": "PASHCHIM CHAMPARAN",
    "latitude": "26.9365007",
    "longitude": "84.2976549"
  },
  {
    "stateName": "BIHAR",
    "circleName": "Bihar Circle",
    "regionName": "Muzaffarpur Region",
    "divisionName": "West Champaran Division",
    "officeName": "Puraina BO",
    "pinCode": "845452",
    "officeType": "BO",
    "district": "PASHCHIM CHAMPARAN",
    "latitude": "26.8937508",
    "longitude": "84.4028209"
  },
  {
    "stateName": "BIHAR",
    "circleName": "Bihar Circle",
    "regionName": "Muzaffarpur Region",
    "divisionName": "West Champaran Division",
    "officeName": "Sirnagar BO",
    "pinCode": "845452",
    "officeType": "BO",
    "district": "PASHCHIM CHAMPARAN",
    "latitude": "26.813619",
    "longitude": "84.3436881"
  },
  {
    "stateName": "BIHAR",
    "circleName": "Bihar Circle",
    "regionName": "Muzaffarpur Region",
    "divisionName": "West Champaran Division",
    "officeName": "Kehunia BO",
    "pinCode": "845453",
    "officeType": "BO",
    "district": "PASHCHIM CHAMPARAN",
    "latitude": "27.0366489",
    "longitude": "84.4553335"
  },
  {
    "stateName": "BIHAR",
    "circleName": "Bihar Circle",
    "regionName": "Muzaffarpur Region",
    "divisionName": "West Champaran Division",
    "officeName": "Mathia BO",
    "pinCode": "845453",
    "officeType": "BO",
    "district": "PASHCHIM CHAMPARAN",
    "latitude": "26.9585147",
    "longitude": "84.4080742"
  },
  {
    "stateName": "BIHAR",
    "circleName": "Bihar Circle",
    "regionName": "Muzaffarpur Region",
    "divisionName": "West Champaran Division",
    "officeName": "Parsa Factory BO",
    "pinCode": "845453",
    "officeType": "BO",
    "district": "PASHCHIM CHAMPARAN",
    "latitude": "27.0179073",
    "longitude": "84.8865187"
  },
  {
    "stateName": "BIHAR",
    "circleName": "Bihar Circle",
    "regionName": "Muzaffarpur Region",
    "divisionName": "West Champaran Division",
    "officeName": "Sahadat Pur BO",
    "pinCode": "845453",
    "officeType": "BO",
    "district": "PASHCHIM CHAMPARAN",
    "latitude": "26.9657513",
    "longitude": "84.3686625"
  },
  {
    "stateName": "BIHAR",
    "circleName": "Bihar Circle",
    "regionName": "Muzaffarpur Region",
    "divisionName": "West Champaran Division",
    "officeName": "Siswa Basantpur BO",
    "pinCode": "845453",
    "officeType": "BO",
    "district": "PASHCHIM CHAMPARAN",
    "latitude": "27.028678",
    "longitude": "84.319661"
  },
  {
    "stateName": "BIHAR",
    "circleName": "Bihar Circle",
    "regionName": "Muzaffarpur Region",
    "divisionName": "West Champaran Division",
    "officeName": "Siswania BO",
    "pinCode": "845453",
    "officeType": "BO",
    "district": "PASHCHIM CHAMPARAN",
    "latitude": "26.8893615",
    "longitude": "84.5156649"
  },
  {
    "stateName": "BIHAR",
    "circleName": "Bihar Circle",
    "regionName": "Muzaffarpur Region",
    "divisionName": "West Champaran Division",
    "officeName": "Bhitaha BO",
    "pinCode": "845104",
    "officeType": "BO",
    "district": "PASHCHIM CHAMPARAN",
    "latitude": "26.908153",
    "longitude": "84.1680507"
  },
  {
    "stateName": "BIHAR",
    "circleName": "Bihar Circle",
    "regionName": "Muzaffarpur Region",
    "divisionName": "West Champaran Division",
    "officeName": "Daunaha BO",
    "pinCode": "845104",
    "officeType": "BO",
    "district": "PASHCHIM CHAMPARAN",
    "latitude": "26.908153",
    "longitude": "84.1680507"
  },
  {
    "stateName": "BIHAR",
    "circleName": "Bihar Circle",
    "regionName": "Muzaffarpur Region",
    "divisionName": "West Champaran Division",
    "officeName": "Parsauna BO",
    "pinCode": "845104",
    "officeType": "BO",
    "district": "PASHCHIM CHAMPARAN",
    "latitude": "26.4267513",
    "longitude": "85.9355648"
  },
  {
    "stateName": "BIHAR",
    "circleName": "Bihar Circle",
    "regionName": "Muzaffarpur Region",
    "divisionName": "West Champaran Division",
    "officeName": "Taulaha BO",
    "pinCode": "845104",
    "officeType": "BO",
    "district": "PASHCHIM CHAMPARAN",
    "latitude": "26.9432514",
    "longitude": "84.0695961"
  },
  {
    "stateName": "BIHAR",
    "circleName": "Bihar Circle",
    "regionName": "Muzaffarpur Region",
    "divisionName": "West Champaran Division",
    "officeName": "Bastha BO",
    "pinCode": "845306",
    "officeType": "BO",
    "district": "PASHCHIM CHAMPARAN",
    "latitude": "27.0972543",
    "longitude": "84.6191317"
  },
  {
    "stateName": "BIHAR",
    "circleName": "Bihar Circle",
    "regionName": "Muzaffarpur Region",
    "divisionName": "West Champaran Division",
    "officeName": "Ghorpakari BO",
    "pinCode": "845306",
    "officeType": "BO",
    "district": "PASHCHIM CHAMPARAN",
    "latitude": "27.1631608",
    "longitude": "84.6557591"
  },
  {
    "stateName": "BIHAR",
    "circleName": "Bihar Circle",
    "regionName": "Muzaffarpur Region",
    "divisionName": "West Champaran Division",
    "officeName": "Pindari BO",
    "pinCode": "845306",
    "officeType": "BO",
    "district": "PASHCHIM CHAMPARAN",
    "latitude": "27.1451708",
    "longitude": "84.6452965"
  },
  {
    "stateName": "BIHAR",
    "circleName": "Bihar Circle",
    "regionName": "Muzaffarpur Region",
    "divisionName": "West Champaran Division",
    "officeName": "Bakharia BO",
    "pinCode": "845454",
    "officeType": "BO",
    "district": "PASHCHIM CHAMPARAN",
    "latitude": "26.7727555",
    "longitude": "84.6531436"
  },
  {
    "stateName": "BIHAR",
    "circleName": "Bihar Circle",
    "regionName": "Muzaffarpur Region",
    "divisionName": "West Champaran Division",
    "officeName": "Gora Karamwa BO",
    "pinCode": "845454",
    "officeType": "BO",
    "district": "PASHCHIM CHAMPARAN",
    "latitude": "26.7270363",
    "longitude": "84.6794049"
  },
  {
    "stateName": "BIHAR",
    "circleName": "Bihar Circle",
    "regionName": "Muzaffarpur Region",
    "divisionName": "West Champaran Division",
    "officeName": "Rajabhar BO",
    "pinCode": "845454",
    "officeType": "BO",
    "district": "PASHCHIM CHAMPARAN",
    "latitude": "26.7994224",
    "longitude": "84.6204402"
  },
  {
    "stateName": "BIHAR",
    "circleName": "Bihar Circle",
    "regionName": "Muzaffarpur Region",
    "divisionName": "West Champaran Division",
    "officeName": "Ratanmala Mathia BO",
    "pinCode": "845454",
    "officeType": "BO",
    "district": "PASHCHIM CHAMPARAN",
    "latitude": "26.8663224",
    "longitude": "84.6169939"
  },
  {
    "stateName": "BIHAR",
    "circleName": "Bihar Circle",
    "regionName": "Muzaffarpur Region",
    "divisionName": "West Champaran Division",
    "officeName": "Shikarpur BO",
    "pinCode": "845454",
    "officeType": "BO",
    "district": "PASHCHIM CHAMPARAN",
    "latitude": "26.8663224",
    "longitude": "84.6169939"
  },
  {
    "stateName": "BIHAR",
    "circleName": "Bihar Circle",
    "regionName": "Muzaffarpur Region",
    "divisionName": "West Champaran Division",
    "officeName": "Bakuli BO",
    "pinCode": "845105",
    "officeType": "BO",
    "district": "PASHCHIM CHAMPARAN",
    "latitude": "27.2400492",
    "longitude": "84.0880839"
  },
  {
    "stateName": "BIHAR",
    "circleName": "Bihar Circle",
    "regionName": "Muzaffarpur Region",
    "divisionName": "West Champaran Division",
    "officeName": "Kunai Bhelahi BO",
    "pinCode": "845105",
    "officeType": "BO",
    "district": "PASHCHIM CHAMPARAN",
    "latitude": "27.2695579",
    "longitude": "84.0933652"
  },
  {
    "stateName": "BIHAR",
    "circleName": "Bihar Circle",
    "regionName": "Muzaffarpur Region",
    "divisionName": "West Champaran Division",
    "officeName": "Semra Labedaha BO",
    "pinCode": "845105",
    "officeType": "BO",
    "district": "PASHCHIM CHAMPARAN",
    "latitude": "27.3071859",
    "longitude": "84.0140983"
  },
  {
    "stateName": "BIHAR",
    "circleName": "Bihar Circle",
    "regionName": "Muzaffarpur Region",
    "divisionName": "West Champaran Division",
    "officeName": "Semra Medraul BO",
    "pinCode": "845105",
    "officeType": "BO",
    "district": "PASHCHIM CHAMPARAN",
    "latitude": "27.22013",
    "longitude": "84.1369174"
  },
  {
    "stateName": "BIHAR",
    "circleName": "Bihar Circle",
    "regionName": "Muzaffarpur Region",
    "divisionName": "West Champaran Division",
    "officeName": "Lachhnauta BO",
    "pinCode": "845455",
    "officeType": "BO",
    "district": "PASHCHIM CHAMPARAN",
    "latitude": "27.2419698",
    "longitude": "84.3844303"
  },
  {
    "stateName": "BIHAR",
    "circleName": "Bihar Circle",
    "regionName": "Muzaffarpur Region",
    "divisionName": "West Champaran Division",
    "officeName": "Manwa Parsi BO",
    "pinCode": "845455",
    "officeType": "BO",
    "district": "PASHCHIM CHAMPARAN",
    "latitude": "27.1724197",
    "longitude": "84.4408972"
  },
  {
    "stateName": "BIHAR",
    "circleName": "Bihar Circle",
    "regionName": "Muzaffarpur Region",
    "divisionName": "West Champaran Division",
    "officeName": "Musharwa BO",
    "pinCode": "845455",
    "officeType": "BO",
    "district": "PASHCHIM CHAMPARAN",
    "latitude": "27.0465795",
    "longitude": "84.4841953"
  },
  {
    "stateName": "BIHAR",
    "circleName": "Bihar Circle",
    "regionName": "Muzaffarpur Region",
    "divisionName": "West Champaran Division",
    "officeName": "Rajpur Madan BO",
    "pinCode": "845455",
    "officeType": "BO",
    "district": "PASHCHIM CHAMPARAN",
    "latitude": "27.0576128",
    "longitude": "84.5038657"
  },
  {
    "stateName": "BIHAR",
    "circleName": "Bihar Circle",
    "regionName": "Muzaffarpur Region",
    "divisionName": "West Champaran Division",
    "officeName": "B. Ratanpura B.O",
    "pinCode": "845439",
    "officeType": "BO",
    "district": "PASHCHIM CHAMPARAN",
    "latitude": "25.9387988",
    "longitude": "83.7385073"
  },
  {
    "stateName": "BIHAR",
    "circleName": "Bihar Circle",
    "regionName": "Muzaffarpur Region",
    "divisionName": "West Champaran Division",
    "officeName": "Khadda B.O",
    "pinCode": "845439",
    "officeType": "BO",
    "district": "PASHCHIM CHAMPARAN",
    "latitude": "26.7553925",
    "longitude": "84.4960605"
  },
  {
    "stateName": "BIHAR",
    "circleName": "Bihar Circle",
    "regionName": "Muzaffarpur Region",
    "divisionName": "West Champaran Division",
    "officeName": "Sareya Ojhwalia B.O",
    "pinCode": "845439",
    "officeType": "BO",
    "district": "PASHCHIM CHAMPARAN",
    "latitude": "263.496851",
    "longitude": "84.6051141"
  },
  {
    "stateName": "BIHAR",
    "circleName": "Bihar Circle",
    "regionName": "Muzaffarpur Region",
    "divisionName": "West Champaran Division",
    "officeName": "Bhairoganj BO",
    "pinCode": "845106",
    "officeType": "BO",
    "district": "PASHCHIM CHAMPARAN",
    "latitude": "27.1665489",
    "longitude": "84.2226101"
  },
  {
    "stateName": "BIHAR",
    "circleName": "Bihar Circle",
    "regionName": "Muzaffarpur Region",
    "divisionName": "West Champaran Division",
    "officeName": "Bhawal BO",
    "pinCode": "845106",
    "officeType": "BO",
    "district": "PASHCHIM CHAMPARAN",
    "latitude": "27.191805",
    "longitude": "84.3029176"
  },
  {
    "stateName": "BIHAR",
    "circleName": "Bihar Circle",
    "regionName": "Muzaffarpur Region",
    "divisionName": "West Champaran Division",
    "officeName": "Cheutaha BO",
    "pinCode": "845106",
    "officeType": "BO",
    "district": "PASHCHIM CHAMPARAN",
    "latitude": "27.2509687",
    "longitude": "84.2094346"
  },
  {
    "stateName": "BIHAR",
    "circleName": "Bihar Circle",
    "regionName": "Muzaffarpur Region",
    "divisionName": "West Champaran Division",
    "officeName": "Behari Bankatwa BO",
    "pinCode": "845307",
    "officeType": "BO",
    "district": "PASHCHIM CHAMPARAN",
    "latitude": "27.0428456",
    "longitude": "84.5012434"
  },
  {
    "stateName": "BIHAR",
    "circleName": "Bihar Circle",
    "regionName": "Muzaffarpur Region",
    "divisionName": "West Champaran Division",
    "officeName": "Sargatia BO",
    "pinCode": "845307",
    "officeType": "BO",
    "district": "PASHCHIM CHAMPARAN",
    "latitude": "26.9246489",
    "longitude": "84.6322156"
  },
  {
    "stateName": "BIHAR",
    "circleName": "Bihar Circle",
    "regionName": "DivReportingCircle",
    "divisionName": "Gaya Division",
    "officeName": "Naugarh BO",
    "pinCode": "824219",
    "officeType": "BO",
    "district": "GAYA",
    "latitude": "24.62589",
    "longitude": "84.657541"
  },
  {
    "stateName": "BIHAR",
    "circleName": "Bihar Circle",
    "regionName": "DivReportingCircle",
    "divisionName": "AurangabadBihar Division",
    "officeName": "CDhongra BO",
    "pinCode": "824111",
    "officeType": "BO",
    "district": "AURANGABAD",
    "latitude": "19.87617",
    "longitude": "75.343313"
  },
  {
    "stateName": "BIHAR",
    "circleName": "Bihar Circle",
    "regionName": "DivReportingCircle",
    "divisionName": "AurangabadBihar Division",
    "officeName": "Parta BO",
    "pinCode": "824111",
    "officeType": "BO",
    "district": "AURANGABAD",
    "latitude": "19.87617",
    "longitude": "75.343313"
  },
  {
    "stateName": "BIHAR",
    "circleName": "Bihar Circle",
    "regionName": "DivReportingCircle",
    "divisionName": "Gaya Division",
    "officeName": "Angra BO",
    "pinCode": "824116",
    "officeType": "BO",
    "district": "GAYA",
    "latitude": "19.87617",
    "longitude": "75.343313"
  },
  {
    "stateName": "BIHAR",
    "circleName": "Bihar Circle",
    "regionName": "DivReportingCircle",
    "divisionName": "Gaya Division",
    "officeName": "Panania BO",
    "pinCode": "824217",
    "officeType": "BO",
    "district": "GAYA",
    "latitude": "24.53514",
    "longitude": "84.705104"
  },
  {
    "stateName": "BIHAR",
    "circleName": "Bihar Circle",
    "regionName": "DivReportingCircle",
    "divisionName": "Gaya Division",
    "officeName": "Parsawan BO",
    "pinCode": "824217",
    "officeType": "BO",
    "district": "GAYA",
    "latitude": "24.53514",
    "longitude": "84.705104"
  },
  {
    "stateName": "BIHAR",
    "circleName": "Bihar Circle",
    "regionName": "DivReportingCircle",
    "divisionName": "Gaya Division",
    "officeName": "Sagdiha BO",
    "pinCode": "824217",
    "officeType": "BO",
    "district": "GAYA",
    "latitude": "24.53514",
    "longitude": "84.705104"
  },
  {
    "stateName": "BIHAR",
    "circleName": "Bihar Circle",
    "regionName": "DivReportingCircle",
    "divisionName": "Gaya Division",
    "officeName": "Bumuar BO",
    "pinCode": "824201",
    "officeType": "BO",
    "district": "GAYA",
    "latitude": "24.45676",
    "longitude": "85.138861"
  },
  {
    "stateName": "BIHAR",
    "circleName": "Bihar Circle",
    "regionName": "DivReportingCircle",
    "divisionName": "Gaya Division",
    "officeName": "Dhamna BO",
    "pinCode": "824201",
    "officeType": "BO",
    "district": "GAYA",
    "latitude": "19.87617",
    "longitude": "75.343313"
  },
  {
    "stateName": "BIHAR",
    "circleName": "Bihar Circle",
    "regionName": "DivReportingCircle",
    "divisionName": "Gaya Division",
    "officeName": "Gopalkera BO",
    "pinCode": "824201",
    "officeType": "BO",
    "district": "GAYA",
    "latitude": "24.45676",
    "longitude": "85.138861"
  },
  {
    "stateName": "BIHAR",
    "circleName": "Bihar Circle",
    "regionName": "DivReportingCircle",
    "divisionName": "AurangabadBihar Division",
    "officeName": "Son Nagar BO",
    "pinCode": "824112",
    "officeType": "BO",
    "district": "AURANGABAD",
    "latitude": "19.87617",
    "longitude": "75.343313"
  },
  {
    "stateName": "BIHAR",
    "circleName": "Bihar Circle",
    "regionName": "DivReportingCircle",
    "divisionName": "AurangabadBihar Division",
    "officeName": "Chanda BO",
    "pinCode": "824113",
    "officeType": "BO",
    "district": "AURANGABAD",
    "latitude": "19.87617",
    "longitude": "75.343313"
  },
  {
    "stateName": "BIHAR",
    "circleName": "Bihar Circle",
    "regionName": "DivReportingCircle",
    "divisionName": "AurangabadBihar Division",
    "officeName": "Khairadip BO",
    "pinCode": "824113",
    "officeType": "BO",
    "district": "AURANGABAD",
    "latitude": "19.87617",
    "longitude": "75.343313"
  },
  {
    "stateName": "BIHAR",
    "circleName": "Bihar Circle",
    "regionName": "DivReportingCircle",
    "divisionName": "AurangabadBihar Division",
    "officeName": "Tara BO",
    "pinCode": "824113",
    "officeType": "BO",
    "district": "AURANGABAD",
    "latitude": "19.87617",
    "longitude": "75.343313"
  },
  {
    "stateName": "BIHAR",
    "circleName": "Bihar Circle",
    "regionName": "DivReportingCircle",
    "divisionName": "AurangabadBihar Division",
    "officeName": "Agnoor BO",
    "pinCode": "824143",
    "officeType": "BO",
    "district": "AURANGABAD",
    "latitude": "25.0333",
    "longitude": "84.999999"
  },
  {
    "stateName": "BIHAR",
    "circleName": "Bihar Circle",
    "regionName": "DivReportingCircle",
    "divisionName": "AurangabadBihar Division",
    "officeName": "Dhnaoh Bigha BO",
    "pinCode": "824143",
    "officeType": "BO",
    "district": "AURANGABAD",
    "latitude": "19.87617",
    "longitude": "75.343313"
  },
  {
    "stateName": "BIHAR",
    "circleName": "Bihar Circle",
    "regionName": "DivReportingCircle",
    "divisionName": "AurangabadBihar Division",
    "officeName": "Tarar BO",
    "pinCode": "824143",
    "officeType": "BO",
    "district": "AURANGABAD",
    "latitude": "25.0333",
    "longitude": "84.999999"
  },
  {
    "stateName": "BIHAR",
    "circleName": "Bihar Circle",
    "regionName": "DivReportingCircle",
    "divisionName": "AurangabadBihar Division",
    "officeName": "Baluganj BO",
    "pinCode": "824202",
    "officeType": "BO",
    "district": "AURANGABAD",
    "latitude": "24.75",
    "longitude": "84.37"
  },
  {
    "stateName": "BIHAR",
    "circleName": "Bihar Circle",
    "regionName": "DivReportingCircle",
    "divisionName": "AurangabadBihar Division",
    "officeName": "Belsara BO",
    "pinCode": "824202",
    "officeType": "BO",
    "district": "AURANGABAD",
    "latitude": "24.75",
    "longitude": "84.37"
  },
  {
    "stateName": "BIHAR",
    "circleName": "Bihar Circle",
    "regionName": "DivReportingCircle",
    "divisionName": "AurangabadBihar Division",
    "officeName": "Malhara BO",
    "pinCode": "824114",
    "officeType": "BO",
    "district": "AURANGABAD",
    "latitude": "19.87617",
    "longitude": "75.343313"
  },
  {
    "stateName": "BIHAR",
    "circleName": "Bihar Circle",
    "regionName": "DivReportingCircle",
    "divisionName": "Gaya Division",
    "officeName": "Amarut BO",
    "pinCode": "824220",
    "officeType": "BO",
    "district": "GAYA",
    "latitude": "24.45676",
    "longitude": "85.138856"
  },
  {
    "stateName": "BIHAR",
    "circleName": "Bihar Circle",
    "regionName": "DivReportingCircle",
    "divisionName": "Gaya Division",
    "officeName": "Hardwan BO",
    "pinCode": "824220",
    "officeType": "BO",
    "district": "GAYA",
    "latitude": "24.45676",
    "longitude": "85.138856"
  },
  {
    "stateName": "BIHAR",
    "circleName": "Bihar Circle",
    "regionName": "DivReportingCircle",
    "divisionName": "Gaya Division",
    "officeName": "Nainsagar BO",
    "pinCode": "824220",
    "officeType": "BO",
    "district": "GAYA",
    "latitude": "24.45676",
    "longitude": "85.138856"
  },
  {
    "stateName": "BIHAR",
    "circleName": "Bihar Circle",
    "regionName": "DivReportingCircle",
    "divisionName": "Gaya Division",
    "officeName": "ANGARA B.O",
    "pinCode": "824220",
    "officeType": "BO",
    "district": "GAYA",
    "latitude": "24.55",
    "longitude": "84.9"
  },
  {
    "stateName": "BIHAR",
    "circleName": "Bihar Circle",
    "regionName": "DivReportingCircle",
    "divisionName": "Gaya Division",
    "officeName": "PATTI B.O",
    "pinCode": "824220",
    "officeType": "BO",
    "district": "GAYA",
    "latitude": "24.5",
    "longitude": "84.91"
  },
  {
    "stateName": "BIHAR",
    "circleName": "Bihar Circle",
    "regionName": "DivReportingCircle",
    "divisionName": "AurangabadBihar Division",
    "officeName": "Darha BO",
    "pinCode": "824203",
    "officeType": "BO",
    "district": "AURANGABAD",
    "latitude": "19.87617",
    "longitude": "75.343313"
  },
  {
    "stateName": "BIHAR",
    "circleName": "Bihar Circle",
    "regionName": "DivReportingCircle",
    "divisionName": "AurangabadBihar Division",
    "officeName": "Gamhari BO",
    "pinCode": "824203",
    "officeType": "BO",
    "district": "AURANGABAD",
    "latitude": "19.87617",
    "longitude": "75.343313"
  },
  {
    "stateName": "BIHAR",
    "circleName": "Bihar Circle",
    "regionName": "DivReportingCircle",
    "divisionName": "AurangabadBihar Division",
    "officeName": "Gorkatti BO",
    "pinCode": "824203",
    "officeType": "BO",
    "district": "AURANGABAD",
    "latitude": "19.87617",
    "longitude": "75.343313"
  },
  {
    "stateName": "BIHAR",
    "circleName": "Bihar Circle",
    "regionName": "DivReportingCircle",
    "divisionName": "AurangabadBihar Division",
    "officeName": "Sakardiha BO",
    "pinCode": "824203",
    "officeType": "BO",
    "district": "AURANGABAD",
    "latitude": "19.87617",
    "longitude": "75.343313"
  },
  {
    "stateName": "BIHAR",
    "circleName": "Bihar Circle",
    "regionName": "DivReportingCircle",
    "divisionName": "AurangabadBihar Division",
    "officeName": "Uphara BO",
    "pinCode": "824203",
    "officeType": "BO",
    "district": "AURANGABAD",
    "latitude": "19.87617",
    "longitude": "75.343313"
  },
  {
    "stateName": "BIHAR",
    "circleName": "Bihar Circle",
    "regionName": "DivReportingCircle",
    "divisionName": "AurangabadBihar Division",
    "officeName": "Bazar Barma B.O",
    "pinCode": "824203",
    "officeType": "BO",
    "district": "AURANGABAD",
    "latitude": "24.9776",
    "longitude": "84.6557"
  },
  {
    "stateName": "BIHAR",
    "circleName": "Bihar Circle",
    "regionName": "DivReportingCircle",
    "divisionName": "Gaya Division",
    "officeName": "Duba BO",
    "pinCode": "824205",
    "officeType": "BO",
    "district": "GAYA",
    "latitude": "24.66958",
    "longitude": "84.772027"
  },
  {
    "stateName": "BIHAR",
    "circleName": "Bihar Circle",
    "regionName": "DivReportingCircle",
    "divisionName": "Gaya Division",
    "officeName": "Ismailpur BO",
    "pinCode": "824205",
    "officeType": "BO",
    "district": "GAYA",
    "latitude": "24.66958",
    "longitude": "84.772027"
  },
  {
    "stateName": "BIHAR",
    "circleName": "Bihar Circle",
    "regionName": "DivReportingCircle",
    "divisionName": "AurangabadBihar Division",
    "officeName": "Baghoi BO",
    "pinCode": "824120",
    "officeType": "BO",
    "district": "AURANGABAD",
    "latitude": "19.87617",
    "longitude": "75.343313"
  },
  {
    "stateName": "BIHAR",
    "circleName": "Bihar Circle",
    "regionName": "DivReportingCircle",
    "divisionName": "Gaya Division",
    "officeName": "Malahari BO",
    "pinCode": "824206",
    "officeType": "BO",
    "district": "GAYA",
    "latitude": "24.45375",
    "longitude": "84.584343"
  },
  {
    "stateName": "BIHAR",
    "circleName": "Bihar Circle",
    "regionName": "DivReportingCircle",
    "divisionName": "Gaya Division",
    "officeName": "Pipra BO",
    "pinCode": "824221",
    "officeType": "BO",
    "district": "GAYA",
    "latitude": "24.45375",
    "longitude": "84.584343"
  },
  {
    "stateName": "BIHAR",
    "circleName": "Bihar Circle",
    "regionName": "DivReportingCircle",
    "divisionName": "Gaya Division",
    "officeName": "Sidhpur BO",
    "pinCode": "824206",
    "officeType": "BO",
    "district": "GAYA",
    "latitude": "24.45375",
    "longitude": "84.584343"
  },
  {
    "stateName": "BIHAR",
    "circleName": "Bihar Circle",
    "regionName": "DivReportingCircle",
    "divisionName": "AurangabadBihar Division",
    "officeName": "Barahi BO",
    "pinCode": "824122",
    "officeType": "BO",
    "district": "AURANGABAD",
    "latitude": "19.87617",
    "longitude": "75.343313"
  },
  {
    "stateName": "BIHAR",
    "circleName": "Bihar Circle",
    "regionName": "DivReportingCircle",
    "divisionName": "AurangabadBihar Division",
    "officeName": "Bhadwa Bazar BO",
    "pinCode": "824122",
    "officeType": "BO",
    "district": "AURANGABAD",
    "latitude": "19.87617",
    "longitude": "75.343313"
  },
  {
    "stateName": "BIHAR",
    "circleName": "Bihar Circle",
    "regionName": "DivReportingCircle",
    "divisionName": "AurangabadBihar Division",
    "officeName": "Karsara BO",
    "pinCode": "824122",
    "officeType": "BO",
    "district": "AURANGABAD",
    "latitude": "19.87617",
    "longitude": "75.343313"
  },
  {
    "stateName": "BIHAR",
    "circleName": "Bihar Circle",
    "regionName": "DivReportingCircle",
    "divisionName": "AurangabadBihar Division",
    "officeName": "Lukka BO",
    "pinCode": "824122",
    "officeType": "BO",
    "district": "AURANGABAD",
    "latitude": "19.87617",
    "longitude": "75.343313"
  },
  {
    "stateName": "BIHAR",
    "circleName": "Bihar Circle",
    "regionName": "DivReportingCircle",
    "divisionName": "AurangabadBihar Division",
    "officeName": "Temura BO",
    "pinCode": "824122",
    "officeType": "BO",
    "district": "AURANGABAD",
    "latitude": "19.87617",
    "longitude": "75.343313"
  },
  {
    "stateName": "BIHAR",
    "circleName": "Bihar Circle",
    "regionName": "DivReportingCircle",
    "divisionName": "AurangabadBihar Division",
    "officeName": "Gijna BO",
    "pinCode": "824121",
    "officeType": "BO",
    "district": "AURANGABAD",
    "latitude": "24.98015",
    "longitude": "84.35695"
  },
  {
    "stateName": "BIHAR",
    "circleName": "Bihar Circle",
    "regionName": "DivReportingCircle",
    "divisionName": "AurangabadBihar Division",
    "officeName": "Belaon BO",
    "pinCode": "824127",
    "officeType": "BO",
    "district": "ARWAL",
    "latitude": "19.87617",
    "longitude": "75.343313"
  },
  {
    "stateName": "BIHAR",
    "circleName": "Bihar Circle",
    "regionName": "DivReportingCircle",
    "divisionName": "AurangabadBihar Division",
    "officeName": "Manpur Chanda BO",
    "pinCode": "824127",
    "officeType": "BO",
    "district": "ARWAL",
    "latitude": "19.87617",
    "longitude": "75.343313"
  },
  {
    "stateName": "BIHAR",
    "circleName": "Bihar Circle",
    "regionName": "DivReportingCircle",
    "divisionName": "Gaya Division",
    "officeName": "Ahiyapur BO",
    "pinCode": "824207",
    "officeType": "BO",
    "district": "GAYA",
    "latitude": "24.72134",
    "longitude": "84.856793"
  },
  {
    "stateName": "BIHAR",
    "circleName": "Bihar Circle",
    "regionName": "DivReportingCircle",
    "divisionName": "Gaya Division",
    "officeName": "Kabar BO",
    "pinCode": "824207",
    "officeType": "BO",
    "district": "GAYA",
    "latitude": "24.72134",
    "longitude": "84.856793"
  },
  {
    "stateName": "BIHAR",
    "circleName": "Bihar Circle",
    "regionName": "DivReportingCircle",
    "divisionName": "Gaya Division",
    "officeName": "Khajuri BO",
    "pinCode": "824207",
    "officeType": "BO",
    "district": "GAYA",
    "latitude": "24.72134",
    "longitude": "84.856793"
  },
  {
    "stateName": "BIHAR",
    "circleName": "Bihar Circle",
    "regionName": "DivReportingCircle",
    "divisionName": "Gaya Division",
    "officeName": "Siyadih BO",
    "pinCode": "824207",
    "officeType": "BO",
    "district": "GAYA",
    "latitude": "24.72134",
    "longitude": "84.856793"
  },
  {
    "stateName": "BIHAR",
    "circleName": "Bihar Circle",
    "regionName": "DivReportingCircle",
    "divisionName": "AurangabadBihar Division",
    "officeName": "K P Tendua BO",
    "pinCode": "824123",
    "officeType": "BO",
    "district": "AURANGABAD",
    "latitude": "19.87617",
    "longitude": "75.343313"
  },
  {
    "stateName": "BIHAR",
    "circleName": "Bihar Circle",
    "regionName": "DivReportingCircle",
    "divisionName": "AurangabadBihar Division",
    "officeName": "Pipra Bagahi BO",
    "pinCode": "824123",
    "officeType": "BO",
    "district": "AURANGABAD",
    "latitude": "19.87617",
    "longitude": "75.343313"
  },
  {
    "stateName": "BIHAR",
    "circleName": "Bihar Circle",
    "regionName": "DivReportingCircle",
    "divisionName": "AurangabadBihar Division",
    "officeName": "Umga BO",
    "pinCode": "824208",
    "officeType": "BO",
    "district": "AURANGABAD",
    "latitude": "19.87617",
    "longitude": "75.343313"
  },
  {
    "stateName": "BIHAR",
    "circleName": "Bihar Circle",
    "regionName": "DivReportingCircle",
    "divisionName": "AurangabadBihar Division",
    "officeName": "Belain BO",
    "pinCode": "824301",
    "officeType": "BO",
    "district": "AURANGABAD",
    "latitude": "19.87617",
    "longitude": "75.343313"
  },
  {
    "stateName": "BIHAR",
    "circleName": "Bihar Circle",
    "regionName": "DivReportingCircle",
    "divisionName": "AurangabadBihar Division",
    "officeName": "Chandragarh BO",
    "pinCode": "824301",
    "officeType": "BO",
    "district": "AURANGABAD",
    "latitude": "19.87617",
    "longitude": "75.343313"
  },
  {
    "stateName": "BIHAR",
    "circleName": "Bihar Circle",
    "regionName": "DivReportingCircle",
    "divisionName": "AurangabadBihar Division",
    "officeName": "ITWAN BO",
    "pinCode": "824301",
    "officeType": "BO",
    "district": "AURANGABAD",
    "latitude": "19.87617",
    "longitude": "75.343313"
  },
  {
    "stateName": "BIHAR",
    "circleName": "Bihar Circle",
    "regionName": "DivReportingCircle",
    "divisionName": "AurangabadBihar Division",
    "officeName": "Bharub BO",
    "pinCode": "824124",
    "officeType": "BO",
    "district": "AURANGABAD",
    "latitude": "19.87617",
    "longitude": "75.343313"
  },
  {
    "stateName": "BIHAR",
    "circleName": "Bihar Circle",
    "regionName": "DivReportingCircle",
    "divisionName": "AurangabadBihar Division",
    "officeName": "Kaithi BO",
    "pinCode": "824124",
    "officeType": "BO",
    "district": "AURANGABAD",
    "latitude": "19.87617",
    "longitude": "75.343313"
  },
  {
    "stateName": "BIHAR",
    "circleName": "Bihar Circle",
    "regionName": "DivReportingCircle",
    "divisionName": "AurangabadBihar Division",
    "officeName": "Oob B.O",
    "pinCode": "824124",
    "officeType": "BO",
    "district": "AURANGABAD",
    "latitude": "24.8999",
    "longitude": "84.3909"
  },
  {
    "stateName": "BIHAR",
    "circleName": "Bihar Circle",
    "regionName": "DivReportingCircle",
    "divisionName": "AurangabadBihar Division",
    "officeName": "Arthua BO",
    "pinCode": "824125",
    "officeType": "BO",
    "district": "AURANGABAD",
    "latitude": "19.87617",
    "longitude": "75.343313"
  },
  {
    "stateName": "BIHAR",
    "circleName": "Bihar Circle",
    "regionName": "DivReportingCircle",
    "divisionName": "AurangabadBihar Division",
    "officeName": "Ranidih BO",
    "pinCode": "824125",
    "officeType": "BO",
    "district": "AURANGABAD",
    "latitude": "19.87617",
    "longitude": "75.343313"
  },
  {
    "stateName": "BIHAR",
    "circleName": "Bihar Circle",
    "regionName": "DivReportingCircle",
    "divisionName": "AurangabadBihar Division",
    "officeName": "Sahukarma BO",
    "pinCode": "824125",
    "officeType": "BO",
    "district": "AURANGABAD",
    "latitude": "19.87617",
    "longitude": "75.343313"
  },
  {
    "stateName": "BIHAR",
    "circleName": "Bihar Circle",
    "regionName": "DivReportingCircle",
    "divisionName": "AurangabadBihar Division",
    "officeName": "Sihuli Khaira BO",
    "pinCode": "824125",
    "officeType": "BO",
    "district": "AURANGABAD",
    "latitude": "19.87617",
    "longitude": "75.343313"
  },
  {
    "stateName": "BIHAR",
    "circleName": "Bihar Circle",
    "regionName": "DivReportingCircle",
    "divisionName": "AurangabadBihar Division",
    "officeName": "Sihuli BO",
    "pinCode": "824125",
    "officeType": "BO",
    "district": "AURANGABAD",
    "latitude": "19.87617",
    "longitude": "75.343313"
  },
  {
    "stateName": "BIHAR",
    "circleName": "Bihar Circle",
    "regionName": "DivReportingCircle",
    "divisionName": "AurangabadBihar Division",
    "officeName": "Charkanwan BO",
    "pinCode": "824125",
    "officeType": "BO",
    "district": "AURANGABAD",
    "latitude": "24.8185",
    "longitude": "84.6343"
  },
  {
    "stateName": "BIHAR",
    "circleName": "Bihar Circle",
    "regionName": "DivReportingCircle",
    "divisionName": "Gaya Division",
    "officeName": "Bara BO",
    "pinCode": "824210",
    "officeType": "BO",
    "district": "GAYA",
    "latitude": "24.43824",
    "longitude": "84.591645"
  },
  {
    "stateName": "BIHAR",
    "circleName": "Bihar Circle",
    "regionName": "DivReportingCircle",
    "divisionName": "AurangabadBihar Division",
    "officeName": "Sandya BO",
    "pinCode": "824129",
    "officeType": "BO",
    "district": "AURANGABAD",
    "latitude": "19.87617",
    "longitude": "75.343313"
  },
  {
    "stateName": "BIHAR",
    "circleName": "Bihar Circle",
    "regionName": "DivReportingCircle",
    "divisionName": "AurangabadBihar Division",
    "officeName": "Ithat BO",
    "pinCode": "824102",
    "officeType": "BO",
    "district": "AURANGABAD",
    "latitude": "19.87617",
    "longitude": "75.343313"
  },
  {
    "stateName": "BIHAR",
    "circleName": "Bihar Circle",
    "regionName": "DivReportingCircle",
    "divisionName": "AurangabadBihar Division",
    "officeName": "Kanbehari BO",
    "pinCode": "824102",
    "officeType": "BO",
    "district": "AURANGABAD",
    "latitude": "19.87617",
    "longitude": "75.343313"
  },
  {
    "stateName": "BIHAR",
    "circleName": "Bihar Circle",
    "regionName": "DivReportingCircle",
    "divisionName": "AurangabadBihar Division",
    "officeName": "Riyasat Mali BO",
    "pinCode": "824102",
    "officeType": "BO",
    "district": "AURANGABAD",
    "latitude": "19.87617",
    "longitude": "75.343313"
  },
  {
    "stateName": "BIHAR",
    "circleName": "Bihar Circle",
    "regionName": "DivReportingCircle",
    "divisionName": "AurangabadBihar Division",
    "officeName": "Silar BO",
    "pinCode": "824102",
    "officeType": "BO",
    "district": "AURANGABAD",
    "latitude": "19.87617",
    "longitude": "75.343313"
  },
  {
    "stateName": "BIHAR",
    "circleName": "Bihar Circle",
    "regionName": "DivReportingCircle",
    "divisionName": "AurangabadBihar Division",
    "officeName": "Simra Bharaundha B.O",
    "pinCode": "824102",
    "officeType": "BO",
    "district": "AURANGABAD",
    "latitude": "24.75",
    "longitude": "84.37"
  },
  {
    "stateName": "BIHAR",
    "circleName": "Bihar Circle",
    "regionName": "DivReportingCircle",
    "divisionName": "Gaya Division",
    "officeName": "Chitabkhurd BO",
    "pinCode": "824211",
    "officeType": "BO",
    "district": "GAYA",
    "latitude": "24.55821",
    "longitude": "84.791432"
  },